Наименование,Описание,Рубрики,Адрес,Комментарий к адресу,Почтовый индекс,Микрорайон,Район,Город,Округ,Регион,Страна,Часы работы,Часовой пояс,Рейтинг,Количество отзывов,Телефон 1,Телефон 2,Веб-сайт 1,Веб-сайт 2,Веб-сайт 3,ВКонтакте,WhatsApp,Telegram,YouTube,Широта,Долгота,2GIS URL,Тип
Дар Сайрана,пункт продажи воды,Питьевая вода,"Максима Рыльского, 7 к1",,450049,Сипайлово м-н,Октябрьский район,Уфа,Уфа городской округ,Республика Башкортостан,Россия,Пн: 00:00-24:00; Вт: 00:00-24:00; Ср: 00:00-24:00; Чт: 00:00-24:00; Пт: 00:00-24:00; Сб: 00:00-24:00; Вс: 00:00-24:00,+05:00,5.0,2,83472232171 (единый номер),89371547644,http://dar-sairana.ru,,,,https://wa.me/79371547644,,,54.770759,56.067802,https://2gis.com/firm/70000001053094675,branch
Дар Сайрана,пункт продажи воды,Питьевая вода,"Рихарда Зорге, 2/2Б",,450083,,Октябрьский район,Уфа,Уфа городской округ,Республика Башкортостан,Россия,Пн: 00:00-24:00; Вт: 00:00-24:00; Ср: 00:00-24:00; Чт: 00:00-24:00; Пт: 00:00-24:00; Сб: 00:00-24:00; Вс: 00:00-24:00,+05:00,2.9,4,83472232171 (единый номер),89371547644,http://dar-sairana.ru,,,,https://wa.me/79371547644,,,54.759287,55.992971,https://2gis.com/firm/70000001047245083,branch
Красноусольская,пункт выдачи воды,Питьевая вода,"Габдуллы Амантая, 7а",,450062,Колгуевский м-н,Кировский район,Уфа,Уфа городской округ,Республика Башкортостан,Россия,Пн: 00:00-24:00; Вт: 00:00-24:00; Ср: 00:00-24:00; Чт: 00:00-24:00; Пт: 00:00-24:00; Сб: 00:00-24:00; Вс: 00:00-24:00,+05:00,1.1,4,89177700180 (горячая линия: пн-вс 9:00-18:00),,,,,,,,,54.690298,55.99178,https://2gis.com/firm/70000001046545806,branch
Сила Урала,,Питьевая вода,"Рабкоров, 5/6",,450092,Зелёная роща м-н,Кировский район,Уфа,Уфа городской округ,Республика Башкортостан,Россия,Пн: 00:00-24:00; Вт: 00:00-24:00; Ср: 00:00-24:00; Чт: 00:00-24:00; Пт: 00:00-24:00; Сб: 00:00-24:00; Вс: 00:00-24:00,+05:00,4.0,2,89279305005,,,,,,https://wa.me/79279305005,,,54.703358,56.001097,https://2gis.com/firm/70000001094433214,branch
Сила Урала,,Питьевая вода,"Комсомольская, 161/ к1",,450096,,Октябрьский район,Уфа,Уфа городской округ,Республика Башкортостан,Россия,Пн: 10:00-21:00; Вт: 10:00-21:00; Ср: 10:00-21:00; Чт: 10:00-21:00; Пт: 10:00-21:00; Сб: 10:00-21:00; Вс: 10:00-21:00,+05:00,5.0,6,89279305005,,,,,,https://wa.me/79279305005,,,54.764429,56.021922,https://2gis.com/firm/70000001058710578,branch
Красноусольская премиум,,Питьевая вода,"Маршала Жукова, 8 к1",,450099,Сипайлово м-н,Октябрьский район,Уфа,Уфа городской округ,Республика Башкортостан,Россия,Пн: 00:00-24:00; Вт: 00:00-24:00; Ср: 00:00-24:00; Чт: 00:00-24:00; Пт: 00:00-24:00; Сб: 00:00-24:00; Вс: 00:00-24:00,+05:00,1.0,3,"89177700180 (горячая линия: пн-пт 9:00-18:00; сб, вс 10:00-17:00)",83472163307 (служба доставки: пн-пт 8:30-20:00),http://красноусольскаяпремиум.рф,,,https://vk.com/zhvoda_ufa,,,,54.768669,56.055775,https://2gis.com/firm/70000001056835080,branch
Дар Сайрана,пункт продажи воды,Питьевая вода,"Степана Халтурина, 40 киоск",,450059,,Советский район,Уфа,Уфа городской округ,Республика Башкортостан,Россия,Пн: 00:00-24:00; Вт: 00:00-24:00; Ср: 00:00-24:00; Чт: 00:00-24:00; Пт: 00:00-24:00; Сб: 00:00-24:00; Вс: 00:00-24:00,+05:00,3.6,21,83472232171 (единый номер),89371547644,http://dar-sairana.ru,,,,https://wa.me/79371547644,,,54.746471,55.985905,https://2gis.com/firm/70000001017433211,branch
Дар Сайрана,пункт продажи воды,Питьевая вода,"Обская, 20 к2",,450022,Зелёная роща м-н,Советский район,Уфа,Уфа городской округ,Республика Башкортостан,Россия,Пн: 00:00-24:00; Вт: 00:00-24:00; Ср: 00:00-24:00; Чт: 00:00-24:00; Пт: 00:00-24:00; Сб: 00:00-24:00; Вс: 00:00-24:00,+05:00,4.4,18,83472232171 (единый номер),89371547644,http://dar-sairana.ru,,,,https://wa.me/79371547644,,,54.718078,55.997119,https://2gis.com/firm/70000001051486775,branch
Дар Сайрана,пункт продажи воды,Питьевая вода,"Менделеева, 156/6",,450080,Зелёная роща м-н,Советский район,Уфа,Уфа городской округ,Республика Башкортостан,Россия,Пн: 00:00-24:00; Вт: 00:00-24:00; Ср: 00:00-24:00; Чт: 00:00-24:00; Пт: 00:00-24:00; Сб: 00:00-24:00; Вс: 00:00-24:00,+05:00,4.0,6,83472232171 (единый номер),89371547644,http://dar-sairana.ru,,,,https://wa.me/79371547644,,,54.723167,56.023028,https://2gis.com/firm/70000001067103025,branch
Дар Сайрана,пункт продажи воды,Питьевая вода,"Энтузиастов, 1к",,450096,,Октябрьский район,Уфа,Уфа городской округ,Республика Башкортостан,Россия,Пн: 00:00-24:00; Вт: 00:00-24:00; Ср: 00:00-24:00; Чт: 00:00-24:00; Пт: 00:00-24:00; Сб: 00:00-24:00; Вс: 00:00-24:00,+05:00,3.3,2,83472232171 (единый номер),89371547644,http://dar-sairana.ru,,,,https://wa.me/79371547644,,,54.756783,56.021435,https://2gis.com/firm/70000001053935275,branch
Сила Урала,,Питьевая вода,,,450077,,Кировский район,Уфа,Уфа городской округ,Республика Башкортостан,Россия,Пн: 00:00-24:00; Вт: 00:00-24:00; Ср: 00:00-24:00; Чт: 00:00-24:00; Пт: 00:00-24:00; Сб: 00:00-24:00; Вс: 00:00-24:00,+05:00,5.0,8,89279305005,,,,,,https://wa.me/79279305005,,,54.732001,55.959416,https://2gis.com/firm/70000001083960066,branch
Красноусольская,пункт выдачи воды,Питьевая вода,"Российская, 94/4",,450098,,Октябрьский район,Уфа,Уфа городской округ,Республика Башкортостан,Россия,Пн: 00:00-24:00; Вт: 00:00-24:00; Ср: 00:00-24:00; Чт: 00:00-24:00; Пт: 00:00-24:00; Сб: 00:00-24:00; Вс: 00:00-24:00,+05:00,1.0,9,89625405700,,http://красноусольскаяпремиум.рф,,,,,,,54.77111,56.028911,https://2gis.com/firm/70000001045268849,branch
Дар Сайрана,пункт продажи воды,Питьевая вода,"Комсомольская, 96в",,450037,,Октябрьский район,Уфа,Уфа городской округ,Республика Башкортостан,Россия,Пн: 00:00-24:00; Вт: 00:00-24:00; Ср: 00:00-24:00; Чт: 00:00-24:00; Пт: 00:00-24:00; Сб: 00:00-24:00; Вс: 00:00-24:00,+05:00,3.7,5,83472232171 (единый номер),89371547644,http://dar-sairana.ru,,,,https://wa.me/79371547644,,,54.749488,56.003656,https://2gis.com/firm/70000001047717361,branch
Серебряный ручей,водомат,Питьевая вода,"Мубарякова, 3",,450092,Белореченский м-н,Кировский район,Уфа,Уфа городской округ,Республика Башкортостан,Россия,Пн: 00:00-24:00; Вт: 00:00-24:00; Ср: 00:00-24:00; Чт: 00:00-24:00; Пт: 00:00-24:00; Сб: 00:00-24:00; Вс: 00:00-24:00,+05:00,5.0,1,,,,,,,,,,54.699354,55.99671,https://2gis.com/firm/70000001044892145,branch
Дар Сайрана,пункт продажи воды,Питьевая вода,"Братьев Кадомцевых, 1 киоск",,450059,,Советский район,Уфа,Уфа городской округ,Республика Башкортостан,Россия,Пн: 00:00-24:00; Вт: 00:00-24:00; Ср: 00:00-24:00; Чт: 00:00-24:00; Пт: 00:00-24:00; Сб: 00:00-24:00; Вс: 00:00-24:00,+05:00,3.5,9,83472232171 (единый номер),89371547644,http://dar-sairana.ru,,,,https://wa.me/79371547644,,,54.752111,55.989521,https://2gis.com/firm/70000001037610712,branch
Дар Сайрана,пункт продажи воды,Питьевая вода,"Маршала Жукова, 5/2Б",,450100,Сипайлово м-н,Октябрьский район,Уфа,Уфа городской округ,Республика Башкортостан,Россия,Пн: 00:00-24:00; Вт: 00:00-24:00; Ср: 00:00-24:00; Чт: 00:00-24:00; Пт: 00:00-24:00; Сб: 00:00-24:00; Вс: 00:00-24:00,+05:00,3.6,6,83472232171 (единый номер),89371547644,http://dar-sairana.ru,,,,https://wa.me/79371547644,,,54.766463,56.049984,https://2gis.com/firm/70000001053767586,branch
Чистая вода,водомат,Питьевая вода,"бульвар Хадии Давлетшиной, 11Б",,450097,,Советский район,Уфа,Уфа городской округ,Республика Башкортостан,Россия,Пн: 00:00-24:00; Вт: 00:00-24:00; Ср: 00:00-24:00; Чт: 00:00-24:00; Пт: 00:00-24:00; Сб: 00:00-24:00; Вс: 00:00-24:00,+05:00,4.2,5,89371557774 (единый номер: пн-вс 9:00-21:00 ),,http://водаудома.рф,,,https://vk.com/club150356557,https://wa.me/79371557774,,,54.735776,55.993057,https://2gis.com/firm/70000001055561438,branch
Дар Сайрана,пункт продажи воды,Питьевая вода,"Высотная, 14/1 киоск",,450103,Юрюзань м-н,Кировский район,Уфа,Уфа городской округ,Республика Башкортостан,Россия,Пн: 09:00-22:00; Вт: 09:00-22:00; Ср: 09:00-22:00; Чт: 09:00-22:00; Пт: 09:00-22:00; Сб: 09:00-22:00; Вс: 09:00-22:00,+05:00,3.5,9,83472232171 (единый номер),89371547644,http://dar-sairana.ru,,,,https://wa.me/79371547644,,,54.703769,55.982231,https://2gis.com/firm/70000001045915657,branch
Табынские святые ключи,водомат,Питьевая вода,"Белякова, 25в",,450091,,Советский район,Уфа,Уфа городской округ,Республика Башкортостан,Россия,Пн: 00:00-24:00; Вт: 00:00-24:00; Ср: 00:00-24:00; Чт: 00:00-24:00; Пт: 00:00-24:00; Сб: 00:00-24:00; Вс: 00:00-24:00,+05:00,2.4,4,,,,,,,,,,54.745599,55.955958,https://2gis.com/firm/70000001060392479,branch
Красноусольская премиум,,Питьевая вода,"Менделеева, 122/2а",,450106,Зелёная роща м-н,Кировский район,Уфа,Уфа городской округ,Республика Башкортостан,Россия,Пн: 00:00-24:00; Вт: 00:00-24:00; Ср: 00:00-24:00; Чт: 00:00-24:00; Пт: 00:00-24:00; Сб: 00:00-24:00; Вс: 00:00-24:00,+05:00,1.2,2,"89177700180 (горячая линия: пн-пт 9:00-18:00; сб, вс 10:00-17:00)",83472163307 (служба доставки: пн-пт 8:30-20:00),http://красноусольскаяпремиум.рф,,,https://vk.com/zhvoda_ufa,,,,54.710375,55.991131,https://2gis.com/firm/70000001064775772,branch
Красная горкa,водомат,Питьевая вода,"Революционная, 78/1",,450005,Айский м-н,Советский район,Уфа,Уфа городской округ,Республика Башкортостан,Россия,Пн: 00:00-24:00; Вт: 00:00-24:00; Ср: 00:00-24:00; Чт: 00:00-24:00; Пт: 00:00-24:00; Сб: 00:00-24:00; Вс: 00:00-24:00,+05:00,3.1,2,89373416177 (единый номер: пн-вс 8:00-21:00),,http://ufa.zakazvoda.com,,,https://vk.com/vodakrasnayagorka,,,,54.732126,55.973975,https://2gis.com/firm/70000001044010537,branch
Дар Сайрана,пункт продажи воды,Питьевая вода,"Российская, 106а",,450098,,Октябрьский район,Уфа,Уфа городской округ,Республика Башкортостан,Россия,Пн: 00:00-24:00; Вт: 00:00-24:00; Ср: 00:00-24:00; Чт: 00:00-24:00; Пт: 00:00-24:00; Сб: 00:00-24:00; Вс: 00:00-24:00,+05:00,3.5,5,83472232171 (единый номер),89371547644,http://dar-sairana.ru,,,,https://wa.me/79371547644,,,54.768962,56.026592,https://2gis.com/firm/70000001059865942,branch
Живая вода,водомат,Питьевая вода,"Энтузиастов, 14",,450096,Планета м-н,Октябрьский район,Уфа,Уфа городской округ,Республика Башкортостан,Россия,Пн: 00:00-24:00; Вт: 00:00-24:00; Ср: 00:00-24:00; Чт: 00:00-24:00; Пт: 00:00-24:00; Сб: 00:00-24:00; Вс: 00:00-24:00,+05:00,,,89191468189 (техническая поддержка),,,,,,,,,54.756446,56.027372,https://2gis.com/firm/70000001097461245,branch
Сила Урала,,Питьевая вода,"Степана Злобина, 5/7",,450022,Зелёная роща м-н,Советский район,Уфа,Уфа городской округ,Республика Башкортостан,Россия,Пн: 00:00-24:00; Вт: 00:00-24:00; Ср: 00:00-24:00; Чт: 00:00-24:00; Пт: 00:00-24:00; Сб: 00:00-24:00; Вс: 00:00-24:00,+05:00,5.0,1,89279305005,,,,,,https://wa.me/79279305005,,,54.720049,55.993814,https://2gis.com/firm/70000001093455852,branch
Дар Сайрана,пункт продажи воды,Питьевая вода,"Природная, 20 к1",,450007,,Ленинский район,Уфа,Уфа городской округ,Республика Башкортостан,Россия,Пн: 00:00-24:00; Вт: 00:00-24:00; Ср: 00:00-24:00; Чт: 00:00-24:00; Пт: 00:00-24:00; Сб: 00:00-24:00; Вс: 00:00-24:00,+05:00,5.0,4,89272366645,89273096486,http://dar-sairana.ru,,,,https://wa.me/79371547644,,,54.780765,55.962337,https://2gis.com/firm/70000001056245808,branch
Красноусольская премиум,,Питьевая вода,"Коммунистическая, 78а",,450077,,Кировский район,Уфа,Уфа городской округ,Республика Башкортостан,Россия,Пн: 00:00-24:00; Вт: 00:00-24:00; Ср: 00:00-24:00; Чт: 00:00-24:00; Пт: 00:00-24:00; Сб: 00:00-24:00; Вс: 00:00-24:00,+05:00,1.7,9,"89177700180 (горячая линия: пн-пт 9:00-18:00; сб, вс 10:00-17:00)",83472163307 (служба доставки: пн-пт 8:30-20:00),http://красноусольскаяпремиум.рф,,,https://vk.com/zhvoda_ufa,,,,54.724642,55.955103,https://2gis.com/firm/70000001047841895,branch
Живая вода,водомат,Питьевая вода,"проспект Октября, 49",,450058,,Советский район,Уфа,Уфа городской округ,Республика Башкортостан,Россия,Пн: 00:00-24:00; Вт: 00:00-24:00; Ср: 00:00-24:00; Чт: 00:00-24:00; Пт: 00:00-24:00; Сб: 00:00-24:00; Вс: 00:00-24:00,+05:00,,,89191468189 (техническая поддержка),,,,,,,,,54.755012,56.002133,https://2gis.com/firm/70000001094474724,branch
Vodorobot,,Питьевая вода,"Кирова, 101",1 этаж,450078,Утренний м-н,Советский район,Уфа,Уфа городской округ,Республика Башкортостан,Россия,Пн: 00:00-24:00; Вт: 00:00-24:00; Ср: 00:00-24:00; Чт: 00:00-24:00; Пт: 00:00-24:00; Сб: 00:00-24:00; Вс: 00:00-24:00,+05:00,4.8,14,88001000123,,http://vodorobot.ru,,,https://vk.com/vodorobots,,,,54.72675,55.981784,https://2gis.com/firm/70000001044008260,branch
Дар Сайрана,пункт продажи воды,Питьевая вода,,,450005,,Советский район,Уфа,Уфа городской округ,Республика Башкортостан,Россия,Пн: 00:00-24:00; Вт: 00:00-24:00; Ср: 00:00-24:00; Чт: 00:00-24:00; Пт: 00:00-24:00; Сб: 00:00-24:00; Вс: 00:00-24:00,+05:00,1.0,1,83472232171 (единый номер),89371547644,http://dar-sairana.ru,,,,https://wa.me/79371547644,,,54.733427,55.967791,https://2gis.com/firm/70000001094242872,branch
Дар Сайрана,пункт продажи воды,Питьевая вода,"Рихарда Зорге, 63/5",,450075,,Октябрьский район,Уфа,Уфа городской округ,Республика Башкортостан,Россия,Пн: 00:00-24:00; Вт: 00:00-24:00; Ср: 00:00-24:00; Чт: 00:00-24:00; Пт: 00:00-24:00; Сб: 00:00-24:00; Вс: 00:00-24:00,+05:00,,,83472232170,89371547644,http://dar-sairana.ru,,,,https://wa.me/79371547644,,,54.76927,56.011255,https://2gis.com/firm/70000001090545179,branch
Сила Урала,,Питьевая вода,"Геологов, 53а",,450062,Кузнецовский затон м-н,Кировский район,Уфа,Уфа городской округ,Республика Башкортостан,Россия,Пн: 00:00-24:00; Вт: 00:00-24:00; Ср: 00:00-24:00; Чт: 00:00-24:00; Пт: 00:00-24:00; Сб: 00:00-24:00; Вс: 00:00-24:00,+05:00,4.0,1,89603933332,,,,,,https://wa.me/79279305005,,,54.685035,55.985049,https://2gis.com/firm/70000001061265306,branch
Vodorobot,,Питьевая вода,"Гафури, 4",1 этаж; Магазин Пятерочка,450093,,Кировский район,Уфа,Уфа городской округ,Республика Башкортостан,Россия,Пн: 00:00-24:00; Вт: 00:00-24:00; Ср: 00:00-24:00; Чт: 00:00-24:00; Пт: 00:00-24:00; Сб: 00:00-24:00; Вс: 00:00-24:00,+05:00,5.0,1,88001000123,,http://vodorobot.ru,,,https://vk.com/vodorobots,,,,54.723358,55.927824,https://2gis.com/firm/70000001091618270,branch
Дар Сайрана,пункт продажи воды,Питьевая вода,"Зайнаб Биишевой, 7а",,450062,Южный м-н,Кировский район,Уфа,Уфа городской округ,Республика Башкортостан,Россия,Пн: 00:00-24:00; Вт: 00:00-24:00; Ср: 00:00-24:00; Чт: 00:00-24:00; Пт: 00:00-24:00; Сб: 00:00-24:00; Вс: 00:00-24:00,+05:00,3.7,5,83472232171 (единый номер),89371547644,http://dar-sairana.ru,,,,https://wa.me/79371547644,,,54.693193,55.985829,https://2gis.com/firm/70000001040213449,branch
Дар Сайрана,пункт продажи воды,Питьевая вода,"Революционная, 129",,450005,,Советский район,Уфа,Уфа городской округ,Республика Башкортостан,Россия,Пн: 00:00-24:00; Вт: 00:00-24:00; Ср: 00:00-24:00; Чт: 00:00-24:00; Пт: 00:00-24:00; Сб: 00:00-24:00; Вс: 00:00-24:00,+05:00,,,83472232171 (единый номер),89371547644,http://dar-sairana.ru,,,,https://wa.me/79371547644,,,54.733519,55.967816,https://2gis.com/firm/70000001052113063,branch
Живая вода,водомат,Питьевая вода,"Степана Кувыкина, 5",,450103,Урал м-н,Кировский район,Уфа,Уфа городской округ,Республика Башкортостан,Россия,Пн: 00:00-24:00; Вт: 00:00-24:00; Ср: 00:00-24:00; Чт: 00:00-24:00; Пт: 00:00-24:00; Сб: 00:00-24:00; Вс: 00:00-24:00,+05:00,3.3,2,89373003764 (единая справочная: круглосуточно),,,,,,,,,54.699514,55.993832,https://2gis.com/firm/70000001043802759,branch
Живая вода,водомат,Питьевая вода,"Кирова, 5",,450052,,Ленинский район,Уфа,Уфа городской округ,Республика Башкортостан,Россия,Пн: 00:00-24:00; Вт: 00:00-24:00; Ср: 00:00-24:00; Чт: 00:00-24:00; Пт: 00:00-24:00; Сб: 00:00-24:00; Вс: 00:00-24:00,+05:00,5.0,6,89373003764 (единая справочная: круглосуточно),,,,,,,,,54.73235,55.947861,https://2gis.com/firm/70000001061134385,branch
Живая вода,водомат,Питьевая вода,"Аксакова, 81/1",1 этаж; справа от магазина Everyday,450052,,Ленинский район,Уфа,Уфа городской округ,Республика Башкортостан,Россия,Пн: 00:00-24:00; Вт: 00:00-24:00; Ср: 00:00-24:00; Чт: 00:00-24:00; Пт: 00:00-24:00; Сб: 00:00-24:00; Вс: 00:00-24:00,+05:00,4.5,28,89874816755,,http://alivewater.ru/,http://alivewater.ru,http://t.me/alivewater,https://vk.com/alivewater_ru,https://wa.me/79874816755,,https://youtube.com/@-..313,54.731762,55.935794,https://2gis.com/firm/70000001052277168,branch
Урал-аква,водомат,Питьевая вода,"Достоевского, 135 к5",,450005,Айский м-н,Советский район,Уфа,Уфа городской округ,Республика Башкортостан,Россия,Пн: 00:00-24:00; Вт: 00:00-24:00; Ср: 00:00-24:00; Чт: 00:00-24:00; Пт: 00:00-24:00; Сб: 00:00-24:00; Вс: 00:00-24:00,+05:00,2.0,6,89378577727,,,,,,,,,54.730317,55.972269,https://2gis.com/firm/70000001061972971,branch
Живая вода,водомат,Питьевая вода,"8 Марта, 19",1 этаж,450001,,Советский район,Уфа,Уфа городской округ,Республика Башкортостан,Россия,Пн: 00:00-24:00; Вт: 00:00-24:00; Ср: 00:00-24:00; Чт: 00:00-24:00; Пт: 00:00-24:00; Сб: 00:00-24:00; Вс: 00:00-24:00,+05:00,,,89191468189 (техническая поддержка),,,,,,,,,54.73708,55.988153,https://2gis.com/firm/70000001058720893,branch
Живая вода,водомат,Питьевая вода,"Бессонова, 21",1 этаж,450097,Северный-Посадский м-н,Советский район,Уфа,Уфа городской округ,Республика Башкортостан,Россия,Пн: 00:00-24:00; Вт: 00:00-24:00; Ср: 00:00-24:00; Чт: 00:00-24:00; Пт: 00:00-24:00; Сб: 00:00-24:00; Вс: 00:00-24:00,+05:00,,,89191468189 (техническая поддержка),,http://alivewater.ru,,,,,,,54.740022,55.995031,https://2gis.com/firm/70000001068070696,branch
Водомир,водомат,Питьевая вода,"Рихарда Зорге, 43/1",,450083,,Октябрьский район,Уфа,Уфа городской округ,Республика Башкортостан,Россия,Пн: 00:00-24:00; Вт: 00:00-24:00; Ср: 00:00-24:00; Чт: 00:00-24:00; Пт: 00:00-24:00; Сб: 00:00-24:00; Вс: 00:00-24:00,+05:00,,,89272360157,,http://vodomir.su,,,,,,,54.76158,55.995305,https://2gis.com/firm/70000001094996867,branch
Дар Сайрана,пункт продажи воды,Питьевая вода,"Софьи Перовской, 42/2 к1",,450062,Южный м-н,Кировский район,Уфа,Уфа городской округ,Республика Башкортостан,Россия,Пн: 00:00-24:00; Вт: 00:00-24:00; Ср: 00:00-24:00; Чт: 00:00-24:00; Пт: 00:00-24:00; Сб: 00:00-24:00; Вс: 00:00-24:00,+05:00,3.5,12,83472232171 (единый номер),89371547644,http://dar-sairana.ru,,,,https://wa.me/79371547644,,,54.697425,55.984254,https://2gis.com/firm/70000001040213432,branch
Красноусольская премиум,,Питьевая вода,,,450006,Айгуль м-н,Советский район,Уфа,Уфа городской округ,Республика Башкортостан,Россия,Пн: 00:00-24:00; Вт: 00:00-24:00; Ср: 00:00-24:00; Чт: 00:00-24:00; Пт: 00:00-24:00; Сб: 00:00-24:00; Вс: 00:00-24:00,+05:00,3.4,8,"89177700180 (горячая линия: пн-пт 9:00-18:00; сб, вс 10:00-17:00)",83472163307 (служба доставки: пн-пт 8:30-20:00),http://красноусольскаяпремиум.рф,,,https://vk.com/zhvoda_ufa,,,,54.744452,55.954336,https://2gis.com/firm/70000001060331475,branch
Vodorobot,,Питьевая вода,"Бессонова, 26а",,450097,Молодёжный м-н,Советский район,Уфа,Уфа городской округ,Республика Башкортостан,Россия,Пн: 00:00-24:00; Вт: 00:00-24:00; Ср: 00:00-24:00; Чт: 00:00-24:00; Пт: 00:00-24:00; Сб: 00:00-24:00; Вс: 00:00-24:00,+05:00,3.0,3,88001000123,,http://vodorobot.ru,,,https://vk.com/vodorobots,,,,54.738481,55.997979,https://2gis.com/firm/70000001080358525,branch
Живая вода,водомат,Питьевая вода,"Кавказская, 24",,450103,Юрюзань м-н,Кировский район,Уфа,Уфа городской округ,Республика Башкортостан,Россия,Пн: 00:00-24:00; Вт: 00:00-24:00; Ср: 00:00-24:00; Чт: 00:00-24:00; Пт: 00:00-24:00; Сб: 00:00-24:00; Вс: 00:00-24:00,+05:00,5.0,2,89991334354,,,,,,,,,54.708155,55.978807,https://2gis.com/firm/70000001092875934,branch
Дар Сайрана,пункт продажи воды,Питьевая вода,"Рихарда Зорге, 4а/1",,450059,,Советский район,Уфа,Уфа городской округ,Республика Башкортостан,Россия,Пн: 00:00-24:00; Вт: 00:00-24:00; Ср: 00:00-24:00; Чт: 00:00-24:00; Пт: 00:00-24:00; Сб: 00:00-24:00; Вс: 00:00-24:00,+05:00,4.0,3,83472232171 (единый номер),89371547644,http://dar-sairana.ru,,,,https://wa.me/79371547644,,,54.746994,55.982933,https://2gis.com/firm/70000001053094660,branch
Vodorobot,,Питьевая вода,"Софьи Перовской, 15/3",,450103,Урал м-н,Кировский район,Уфа,Уфа городской округ,Республика Башкортостан,Россия,Пн: 08:00-23:00; Вт: 08:00-23:00; Ср: 08:00-23:00; Чт: 08:00-23:00; Пт: 08:00-23:00; Сб: 08:00-23:00; Вс: 08:00-23:00,+05:00,3.0,2,88001000123,,http://vodorobot.ru,,,https://vk.com/vodorobots,,,,54.698688,55.988875,https://2gis.com/firm/70000001067252609,branch
Красноусольская премиум,,Питьевая вода,"Бакалинская, 25/1",,450047,Зелёная роща м-н,Кировский район,Уфа,Уфа городской округ,Республика Башкортостан,Россия,Пн: 00:00-24:00; Вт: 00:00-24:00; Ср: 00:00-24:00; Чт: 00:00-24:00; Пт: 00:00-24:00; Сб: 00:00-24:00; Вс: 00:00-24:00,+05:00,2.8,6,"89177700180 (горячая линия: пн-пт 9:00-18:00; сб, вс 10:00-17:00)",83472163307 (служба доставки: пн-пт 8:30-20:00),http://красноусольскаяпремиум.рф,,,https://vk.com/zhvoda_ufa,,,,54.718092,55.986624,https://2gis.com/firm/70000001056771392,branch
Дар Сайрана,пункт продажи воды,Питьевая вода,"Испытателей, 2/2",,450062,Кузнецовский затон м-н,Кировский район,Уфа,Уфа городской округ,Республика Башкортостан,Россия,Пн: 00:00-24:00; Вт: 00:00-24:00; Ср: 00:00-24:00; Чт: 00:00-24:00; Пт: 00:00-24:00; Сб: 00:00-24:00; Вс: 00:00-24:00,+05:00,4.1,9,83472232171 (единый номер),89371547644,http://dar-sairana.ru,,,,https://wa.me/79371547644,,,54.688811,55.985132,https://2gis.com/firm/70000001045954325,branch
Vodorobot,,Питьевая вода,"Загира Исмагилова, 14",,450062,Южный м-н,Кировский район,Уфа,Уфа городской округ,Республика Башкортостан,Россия,Пн: 00:00-24:00; Вт: 00:00-24:00; Ср: 00:00-24:00; Чт: 00:00-24:00; Пт: 00:00-24:00; Сб: 00:00-24:00; Вс: 00:00-24:00,+05:00,1.7,3,88001000123,,http://vodorobot.ru,,,https://vk.com/vodorobots,,,,54.698098,55.982804,https://2gis.com/firm/70000001053165419,branch
Vodorobot,,Питьевая вода,"Революционная, 70/1",1 этаж,450005,,Советский район,Уфа,Уфа городской округ,Республика Башкортостан,Россия,Пн: 00:00-24:00; Вт: 00:00-24:00; Ср: 00:00-24:00; Чт: 00:00-24:00; Пт: 00:00-24:00; Сб: 00:00-24:00; Вс: 00:00-24:00,+05:00,1.0,2,88001000123,,http://vodorobot.ru,,,https://vk.com/vodorobots,,,,54.7327,55.969473,https://2gis.com/firm/70000001067222041,branch
Водомир,водомат,Питьевая вода,"проспект Октября, 43/5",,450058,,Советский район,Уфа,Уфа городской округ,Республика Башкортостан,Россия,Пн: 00:00-24:00; Вт: 00:00-24:00; Ср: 00:00-24:00; Чт: 00:00-24:00; Пт: 00:00-24:00; Сб: 00:00-24:00; Вс: 00:00-24:00,+05:00,1.8,4,83472660657,,http://vodomir.su,,,,,,,54.75493,55.997884,https://2gis.com/firm/70000001031560627,branch
Водомат,,Питьевая вода,"Менделеева, 112",1 подъезд,450106,Зелёная роща м-н,Кировский район,Уфа,Уфа городской округ,Республика Башкортостан,Россия,Пн: 00:00-24:00; Вт: 00:00-24:00; Ср: 00:00-24:00; Чт: 00:00-24:00; Пт: 00:00-24:00; Сб: 00:00-24:00; Вс: 00:00-24:00,+05:00,3.0,4,89869698148,,,,,,,,,54.710596,55.990864,https://2gis.com/firm/70000001045702821,branch
Красноусольская премиум,,Питьевая вода,"50 лет СССР, 42/1а",,450071,,Октябрьский район,Уфа,Уфа городской округ,Республика Башкортостан,Россия,Пн: 00:00-24:00; Вт: 00:00-24:00; Ср: 00:00-24:00; Чт: 00:00-24:00; Пт: 00:00-24:00; Сб: 00:00-24:00; Вс: 00:00-24:00,+05:00,1.5,7,"89177700180 (горячая линия: пн-пт 9:00-18:00; сб, вс 10:00-17:00)",83472163307 (служба доставки: пн-пт 8:30-20:00),http://красноусольскаяпремиум.рф,,,https://vk.com/zhvoda_ufa,,,,54.747291,56.021439,https://2gis.com/firm/70000001054956410,branch
Vodorobot,,Питьевая вода,"проспект Дружбы Народов, 53",,450017,,Ленинский район,Уфа,Уфа городской округ,Республика Башкортостан,Россия,Пн: 08:00-23:00; Вт: 08:00-23:00; Ср: 08:00-23:00; Чт: 08:00-23:00; Пт: 08:00-23:00; Сб: 08:00-23:00; Вс: 08:00-23:00,+05:00,3.0,1,88001000123,,http://vodorobot.ru,,,https://vk.com/vodorobots,,,,54.770521,55.903604,https://2gis.com/firm/70000001076296413,branch
Vodorobot,,Питьевая вода,"Софьи Перовской, 25/1",,450092,Белореченский м-н,Кировский район,Уфа,Уфа городской округ,Республика Башкортостан,Россия,Пн: 00:00-24:00; Вт: 00:00-24:00; Ср: 00:00-24:00; Чт: 00:00-24:00; Пт: 00:00-24:00; Сб: 00:00-24:00; Вс: 00:00-24:00,+05:00,1.0,1,88001000123,,http://vodorobot.ru,,,https://vk.com/vodorobots,,,,54.69564,56.000576,https://2gis.com/firm/70000001087750179,branch
Живая вода,водомат,Питьевая вода,"Булата Имашева, 12",,450062,Кузнецовский затон м-н,Кировский район,Уфа,Уфа городской округ,Республика Башкортостан,Россия,Пн: 00:00-24:00; Вт: 00:00-24:00; Ср: 00:00-24:00; Чт: 00:00-24:00; Пт: 00:00-24:00; Сб: 00:00-24:00; Вс: 00:00-24:00,+05:00,3.0,1,89177837466,,http://alivewater.ru,,,,,,,54.690991,55.972538,https://2gis.com/firm/70000001051292178,branch
Живая вода,водомат,Питьевая вода,"Бессонова, 3",1 этаж,450001,,Советский район,Уфа,Уфа городской округ,Республика Башкортостан,Россия,Пн: 00:00-24:00; Вт: 00:00-24:00; Ср: 00:00-24:00; Чт: 00:00-24:00; Пт: 00:00-24:00; Сб: 00:00-24:00; Вс: 00:00-24:00,+05:00,1.8,4,89876122138 (техническая поддержка: круглосуточно),,http://alivewater.ru,,,https://vk.com/alivewater_ru,https://wa.me/79876122138,,,54.741675,55.990362,https://2gis.com/firm/70000001057734982,branch
Vodorobot,,Питьевая вода,"проспект Октября, 112/3",,450098,,Октябрьский район,Уфа,Уфа городской округ,Республика Башкортостан,Россия,Пн: 00:00-24:00; Вт: 00:00-24:00; Ср: 00:00-24:00; Чт: 00:00-24:00; Пт: 00:00-24:00; Сб: 00:00-24:00; Вс: 00:00-24:00,+05:00,4.1,1,88001000123,,http://vodorobot.ru,,,https://vk.com/vodorobots,,,,54.768385,56.02522,https://2gis.com/firm/70000001067032249,branch
Живая вода,водомат,Питьевая вода,"проспект Дружбы Народов, 55/1",,450017,,Ленинский район,Уфа,Уфа городской округ,Республика Башкортостан,Россия,Пн: 00:00-24:00; Вт: 00:00-24:00; Ср: 00:00-24:00; Чт: 00:00-24:00; Пт: 00:00-24:00; Сб: 00:00-24:00; Вс: 00:00-24:00,+05:00,3.0,3,89876122138 (техническая поддержка: круглосуточно),,http://alivewater.ru,,,https://vk.com/alivewater_ru,https://wa.me/79876122138,,,54.771005,55.901242,https://2gis.com/firm/70000001067249097,branch
Живая вода,водомат,Питьевая вода,"бульвар Давлеткильдеева, 20",1 этаж,450098,Планета м-н,Октябрьский район,Уфа,Уфа городской округ,Республика Башкортостан,Россия,Пн: 00:00-24:00; Вт: 00:00-24:00; Ср: 00:00-24:00; Чт: 00:00-24:00; Пт: 00:00-24:00; Сб: 00:00-24:00; Вс: 00:00-24:00,+05:00,2.5,9,89191468189 (техническая поддержка),,,,,,,,,54.761134,56.034901,https://2gis.com/firm/70000001057710007,branch
Vodorobot,,Питьевая вода,"Российская, 43",,450104,,Октябрьский район,Уфа,Уфа городской округ,Республика Башкортостан,Россия,Пн: 08:00-23:00; Вт: 08:00-23:00; Ср: 08:00-23:00; Чт: 08:00-23:00; Пт: 08:00-23:00; Сб: 08:00-23:00; Вс: 08:00-23:00,+05:00,4.4,17,88001000123,,http://vodorobot.ru,,,https://vk.com/vodorobots,,,,54.778083,56.036337,https://2gis.com/firm/70000001055994768,branch
Красная горкa,водомат,Питьевая вода,"бульвар Тюлькина, 3 к1",,450098,Глумилино м-н,Октябрьский район,Уфа,Уфа городской округ,Республика Башкортостан,Россия,Пн: 00:00-24:00; Вт: 00:00-24:00; Ср: 00:00-24:00; Чт: 00:00-24:00; Пт: 00:00-24:00; Сб: 00:00-24:00; Вс: 00:00-24:00,+05:00,5.0,1,89373416177 (единый номер: пн-вс 8:00-21:00),,http://ufa.zakazvoda.com,,,https://vk.com/vodakrasnayagorka,,,,54.768768,56.03468,https://2gis.com/firm/70000001046443751,branch
Дар Сайрана,пункт продажи воды,Питьевая вода,"Даяна Мурзина, 11/1а",,450018,,Кировский район,Уфа,Уфа городской округ,Республика Башкортостан,Россия,Пн: 00:00-24:00; Вт: 00:00-24:00; Ср: 00:00-24:00; Чт: 00:00-24:00; Пт: 00:00-24:00; Сб: 00:00-24:00; Вс: 00:00-24:00,+05:00,4.4,13,83472232171 (единый номер),89371547644,http://dar-sairana.ru,,,,https://wa.me/79371547644,,,54.674072,55.918107,https://2gis.com/firm/70000001053094798,branch
Дар Сайрана,пункт продажи воды,Питьевая вода,"Российская, 43/5",,450104,,Октябрьский район,Уфа,Уфа городской округ,Республика Башкортостан,Россия,Пн: 00:00-24:00; Вт: 00:00-24:00; Чт: 00:00-24:00; Пт: 00:00-24:00; Сб: 00:00-24:00; Вс: 00:00-24:00,+05:00,1.0,1,83472232171 (единый номер),89371547644,http://dar-sairana.ru,,,,https://wa.me/79371547644,,,54.776966,56.039685,https://2gis.com/firm/70000001092859550,branch
Дар Сайрана,пункт продажи воды,Питьевая вода,"Даяна Мурзина, 9",,450018,,Кировский район,Уфа,Уфа городской округ,Республика Башкортостан,Россия,Пн: 00:00-24:00; Вт: 00:00-24:00; Ср: 00:00-24:00; Чт: 00:00-24:00; Пт: 00:00-24:00; Сб: 00:00-24:00; Вс: 00:00-24:00,+05:00,1.0,1,83472232171 (единый номер),89371547644,http://dar-sairana.ru,,,,https://wa.me/79371547644,,,54.672629,55.92013,https://2gis.com/firm/70000001093671259,branch
Дар Сайрана,пункт продажи воды,Питьевая вода,"бульвар Славы, 15/1",,450075,,Орджоникидзевский район,Уфа,Уфа городской округ,Республика Башкортостан,Россия,Пн: 00:00-24:00; Вт: 00:00-24:00; Ср: 00:00-24:00; Чт: 00:00-24:00; Пт: 00:00-24:00; Сб: 00:00-24:00; Вс: 00:00-24:00,+05:00,4.2,10,83472232171 (единый номер),89371547644,http://dar-sairana.ru,,,,https://wa.me/79371547644,,,54.790595,56.034157,https://2gis.com/firm/70000001052112913,branch
Дар Сайрана,пункт продажи воды,Питьевая вода,"Юрия Гагарина, 68 к2",,450105,Сипайлово м-н,Октябрьский район,Уфа,Уфа городской округ,Республика Башкортостан,Россия,Пн: 00:00-24:00; Вт: 00:00-24:00; Ср: 00:00-24:00; Чт: 00:00-24:00; Пт: 00:00-24:00; Сб: 00:00-24:00; Вс: 00:00-24:00,+05:00,3.8,3,83472232171 (единый номер),89371547644,http://dar-sairana.ru,,,,https://wa.me/79371547644,,,54.775963,56.076941,https://2gis.com/firm/70000001057879207,branch
Vodorobot,,Питьевая вода,"Российская, 25",,450104,,Орджоникидзевский район,Уфа,Уфа городской округ,Республика Башкортостан,Россия,Пн: 00:00-24:00; Вт: 00:00-24:00; Ср: 00:00-24:00; Чт: 00:00-24:00; Пт: 00:00-24:00; Сб: 00:00-24:00; Вс: 00:00-24:00,+05:00,4.8,12,88001000123,,http://vodorobot.ru,,,https://vk.com/vodorobots,,,,54.784303,56.040315,https://2gis.com/firm/70000001040741315,branch
Vodorobot,,Питьевая вода,"проспект Октября, 121/1а",1 этаж,450075,,Орджоникидзевский район,Уфа,Уфа городской округ,Республика Башкортостан,Россия,Пн: 00:00-24:00; Вт: 00:00-24:00; Ср: 00:00-24:00; Чт: 00:00-24:00; Пт: 00:00-24:00; Сб: 00:00-24:00; Вс: 00:00-24:00,+05:00,5.0,1,88001000123,,http://vodorobot.ru,,,https://vk.com/vodorobots,,,,54.789068,56.032819,https://2gis.com/firm/70000001086761445,branch
Дар Сайрана,пункт продажи воды,Питьевая вода,"Российская, 15 к3",,450081,,Орджоникидзевский район,Уфа,Уфа городской округ,Республика Башкортостан,Россия,Пн: 00:00-24:00; Вт: 00:00-24:00; Ср: 00:00-24:00; Чт: 00:00-24:00; Пт: 00:00-24:00; Сб: 00:00-24:00; Вс: 00:00-24:00,+05:00,3.2,10,83472232171 (единый номер),89371547644,http://dar-sairana.ru,,,,https://wa.me/79371547644,,,54.787716,56.040619,https://2gis.com/firm/70000001051486837,branch
Vodorobot,,Питьевая вода,"Юрия Гагарина, 26/2",1 этаж,450073,Сипайлово м-н,Октябрьский район,Уфа,Уфа городской округ,Республика Башкортостан,Россия,Пн: 00:00-24:00; Вт: 00:00-24:00; Ср: 00:00-24:00; Чт: 00:00-24:00; Пт: 00:00-24:00; Сб: 00:00-24:00; Вс: 00:00-24:00,+05:00,,,88001000123,,http://vodorobot.ru,,,https://vk.com/vodorobots,,,,54.764069,56.061733,https://2gis.com/firm/70000001067220381,branch
Vodorobot,,Питьевая вода,"Баязита Бикбая, 36/1",1 этаж,450073,Сипайлово м-н,Октябрьский район,Уфа,Уфа городской округ,Республика Башкортостан,Россия,Пн: 00:00-24:00; Вт: 00:00-24:00; Ср: 00:00-24:00; Чт: 00:00-24:00; Пт: 00:00-24:00; Сб: 00:00-24:00; Вс: 00:00-24:00,+05:00,1.5,2,88001000123,,http://vodorobot.ru,,,https://vk.com/vodorobots,,,,54.763155,56.065219,https://2gis.com/firm/70000001076296348,branch
Чистая вода,автомат питьевой воды,Питьевая вода,"Воинов-Интернационалистов, 7",,450104,,Октябрьский район,Уфа,Уфа городской округ,Республика Башкортостан,Россия,Пн: 00:00-24:00; Вт: 00:00-24:00; Ср: 00:00-24:00; Чт: 00:00-24:00; Пт: 00:00-24:00; Сб: 00:00-24:00; Вс: 00:00-24:00,+05:00,3.6,2,88002508001 (техническая поддержка),,http://aquacapital.ru,,,,,https://t.me/Elya0139,,54.781066,56.048243,https://2gis.com/firm/70000001085336536,branch
Живая вода,водомат,Питьевая вода,"Бориса Домашникова, 22",1 этаж,450015,,Советский район,Уфа,Уфа городской округ,Республика Башкортостан,Россия,Пн: 00:00-24:00; Вт: 00:00-24:00; Ср: 00:00-24:00; Чт: 00:00-24:00; Пт: 00:00-24:00; Сб: 00:00-24:00; Вс: 00:00-24:00,+05:00,4.0,2,89177383429,,,,,,https://wa.me/79177383429,,,54.740495,55.94319,https://2gis.com/firm/70000001044520945,branch
Живая вода,водомат,Питьевая вода,"Менделеева, 9/3 к1",,450047,Дружба м-н,Кировский район,Уфа,Уфа городской округ,Республика Башкортостан,Россия,Пн: 00:00-24:00; Вт: 00:00-24:00; Ср: 00:00-24:00; Чт: 00:00-24:00; Пт: 00:00-24:00; Сб: 00:00-24:00; Вс: 00:00-24:00,+05:00,,,89191468189 (техническая поддержка),,,,,,,,,54.712612,55.976266,https://2gis.com/firm/70000001079224775,branch
Живая вода,водомат,Питьевая вода,"Чернышевского, 12",1 этаж,450076,,Ленинский район,Уфа,Уфа городской округ,Республика Башкортостан,Россия,Пн: 00:00-24:00; Вт: 00:00-24:00; Ср: 00:00-24:00; Чт: 00:00-24:00; Пт: 00:00-24:00; Сб: 00:00-24:00; Вс: 00:00-24:00,+05:00,3.1,2,89191468189 (техническая поддержка),,,,,,,,,54.732217,55.925857,https://2gis.com/firm/70000001080441737,branch
Живая вода,водомат,Питьевая вода,,,450076,,Ленинский район,Уфа,Уфа городской округ,Республика Башкортостан,Россия,Пн: 00:00-24:00; Вт: 00:00-24:00; Ср: 00:00-24:00; Чт: 00:00-24:00; Пт: 00:00-24:00; Сб: 00:00-24:00; Вс: 00:00-24:00,+05:00,,,89191468189 (техническая поддержка),,,,,,,,,54.731516,55.929941,https://2gis.com/firm/70000001089467914,branch
Живая вода,водомат,Питьевая вода,"Комсомольская, 18а",,450097,Северный-Посадский м-н,Советский район,Уфа,Уфа городской округ,Республика Башкортостан,Россия,Пн: 00:00-24:00; Вт: 00:00-24:00; Ср: 00:00-24:00; Чт: 00:00-24:00; Пт: 00:00-24:00; Сб: 00:00-24:00; Вс: 00:00-24:00,+05:00,2.0,1,89191468189 (техническая поддержка),,,,,,,,,54.742382,55.996541,https://2gis.com/firm/70000001090473955,branch
Живая вода,водомат,Питьевая вода,"Менделеева, 136/1",,450022,Зелёная роща м-н,Кировский район,Уфа,Уфа городской округ,Республика Башкортостан,Россия,Пн: 00:00-24:00; Вт: 00:00-24:00; Ср: 00:00-24:00; Чт: 00:00-24:00; Пт: 00:00-24:00; Сб: 00:00-24:00; Вс: 00:00-24:00,+05:00,,,89191468189 (техническая поддержка),,,,,,,,,54.718015,56.012749,https://2gis.com/firm/70000001092448754,branch
Живая вода,водомат,Питьевая вода,"проспект Октября, 65/5",,450054,,Октябрьский район,Уфа,Уфа городской округ,Республика Башкортостан,Россия,Пн: 00:00-24:00; Вт: 00:00-24:00; Ср: 00:00-24:00; Чт: 00:00-24:00; Пт: 00:00-24:00; Сб: 00:00-24:00; Вс: 00:00-24:00,+05:00,,,89373053881,,,,,,,,,54.760482,56.005839,https://2gis.com/firm/70000001092775058,branch
Живая вода,водомат,Питьевая вода,"Рихарда Зорге, 54",,450054,,Октябрьский район,Уфа,Уфа городской округ,Республика Башкортостан,Россия,Пн: 00:00-24:00; Вт: 00:00-24:00; Ср: 00:00-24:00; Чт: 00:00-24:00; Пт: 00:00-24:00; Сб: 00:00-24:00; Вс: 00:00-24:00,+05:00,,,89191468189 (техническая поддержка),,,,,,,,,54.762938,56.002744,https://2gis.com/firm/70000001099886791,branch
Живая вода,водомат,Питьевая вода,"Большая Московская, 13",1 этаж,450047,,Кировский район,Уфа,Уфа городской округ,Республика Башкортостан,Россия,Пн: 00:00-24:00; Вт: 00:00-24:00; Ср: 00:00-24:00; Чт: 00:00-24:00; Пт: 00:00-24:00; Сб: 00:00-24:00; Вс: 00:00-24:00,+05:00,3.0,2,89373003764 (единая справочная: круглосуточно),,,,,,,,,54.712869,55.977471,https://2gis.com/firm/70000001035486006,branch
Живая вода,водомат,Питьевая вода,"Краснодонская, 3",,450006,,Советский район,Уфа,Уфа городской округ,Республика Башкортостан,Россия,Пн: 00:00-24:00; Вт: 00:00-24:00; Ср: 00:00-24:00; Чт: 00:00-24:00; Пт: 00:00-24:00; Сб: 00:00-24:00; Вс: 00:00-24:00,+05:00,,,89373003764 (единая справочная: круглосуточно),,,,,,,,,54.741417,55.957616,https://2gis.com/firm/70000001046658245,branch
Живая вода,водомат,Питьевая вода,"Менделеева, 104",,450106,Зелёная роща м-н,Кировский район,Уфа,Уфа городской округ,Республика Башкортостан,Россия,Пн: 00:00-24:00; Вт: 00:00-24:00; Ср: 00:00-24:00; Чт: 00:00-24:00; Пт: 00:00-24:00; Сб: 00:00-24:00; Вс: 00:00-24:00,+05:00,5.0,2,89373003764 (единая справочная: круглосуточно),,http://alivewater.ru,,,,,,,54.710731,55.986538,https://2gis.com/firm/70000001046658207,branch
Живая вода,водомат,Питьевая вода,"Пушкина, 109",1 этаж,450057,,Кировский район,Уфа,Уфа городской округ,Республика Башкортостан,Россия,Пн: 00:00-24:00; Вт: 00:00-24:00; Ср: 00:00-24:00; Чт: 00:00-24:00; Пт: 00:00-24:00; Сб: 00:00-24:00; Вс: 00:00-24:00,+05:00,3.7,3,89373003764 (единая справочная: круглосуточно),,,,,,,,,54.718773,55.955644,https://2gis.com/firm/70000001037984815,branch
Живая вода,водомат,Питьевая вода,"Пушкина, 43",1 этаж,450076,,Кировский район,Уфа,Уфа городской округ,Республика Башкортостан,Россия,Пн: 00:00-24:00; Вт: 00:00-24:00; Ср: 00:00-24:00; Чт: 00:00-24:00; Пт: 00:00-24:00; Сб: 00:00-24:00; Вс: 00:00-24:00,+05:00,2.3,4,89373003764 (единая справочная: круглосуточно),,,,,,,,,54.725116,55.928156,https://2gis.com/firm/70000001033506698,branch
Живая вода,водомат,Питьевая вода,"Энгельса, 1/1",1 этаж,450077,,Кировский район,Уфа,Уфа городской округ,Республика Башкортостан,Россия,Пн: 00:00-24:00; Вт: 00:00-24:00; Ср: 00:00-24:00; Чт: 00:00-24:00; Пт: 00:00-24:00; Сб: 00:00-24:00; Вс: 00:00-24:00,+05:00,5.0,2,89373003764 (единая справочная: круглосуточно),,,,,,,,,54.723749,55.960096,https://2gis.com/firm/70000001051377781,branch
Живая вода,водомат,Питьевая вода,"Ленина, 99",,450091,,Советский район,Уфа,Уфа городской округ,Республика Башкортостан,Россия,Пн: 00:00-24:00; Вт: 00:00-24:00; Ср: 00:00-24:00; Чт: 00:00-24:00; Пт: 00:00-24:00; Сб: 00:00-24:00; Вс: 00:00-24:00,+05:00,,,89373003764 (единая справочная: круглосуточно),,,,,,,,,54.746998,55.957968,https://2gis.com/firm/70000001084472619,branch
Живая вода,водомат,Питьевая вода,"бульвар Хадии Давлетшиной, 9",рядом со студией Очей Очарованье,450097,,Советский район,Уфа,Уфа городской округ,Республика Башкортостан,Россия,Пн: 00:00-24:00; Вт: 00:00-24:00; Ср: 00:00-24:00; Чт: 00:00-24:00; Пт: 00:00-24:00; Сб: 00:00-24:00; Вс: 00:00-24:00,+05:00,3.8,11,89874816755,,http://alivewater.ru,http://t.me/alivewater,,https://vk.com/alivewater_ru,https://wa.me/79874816755,,https://youtube.com/@-..313,54.736693,55.992093,https://2gis.com/firm/70000001077019659,branch
Живая вода,водомат,Питьевая вода,"Революционная, 98/2а",cзади РемБытСервис со стороны ЖК Эдисон,450078,,Советский район,Уфа,Уфа городской округ,Республика Башкортостан,Россия,Пн: 00:00-24:00; Вт: 00:00-24:00; Ср: 00:00-24:00; Чт: 00:00-24:00; Пт: 00:00-24:00; Сб: 00:00-24:00; Вс: 00:00-24:00,+05:00,2.0,2,89874816755,,http://alivewater.ru,http://t.me/alivewater,,https://vk.com/alivewater_ru,https://wa.me/79874816755,,https://youtube.com/@-..313,54.728301,55.986389,https://2gis.com/firm/70000001094322969,branch
Живая вoда,водомат,Питьевая вода,"Менделеева, 102",,450106,Зелёная роща м-н,Кировский район,Уфа,Уфа городской округ,Республика Башкортостан,Россия,Пн: 00:00-24:00; Вт: 00:00-24:00; Ср: 00:00-24:00; Чт: 00:00-24:00; Пт: 00:00-24:00; Сб: 00:00-24:00; Вс: 00:00-24:00,+05:00,4.0,2,,,http://alivewater.ru,,,,,,,54.710454,55.985898,https://2gis.com/firm/70000001060632638,branch
Живая вода,водомат,Питьевая вода,"Рихарда Зорге, 35",1 этаж,450083,,Октябрьский район,Уфа,Уфа городской округ,Республика Башкортостан,Россия,Пн: 00:00-24:00; Вт: 00:00-24:00; Ср: 00:00-24:00; Чт: 00:00-24:00; Пт: 00:00-24:00; Сб: 00:00-24:00; Вс: 00:00-24:00,+05:00,1.7,3,89876122138 (техническая поддержка: круглосуточно),,http://alivewater.ru,,,https://vk.com/alivewater_ru,https://wa.me/79876122138,,,54.758101,55.994804,https://2gis.com/firm/70000001074187488,branch
Живая вода,водомат,Питьевая вода,"50 лет СССР, 48",1 этаж,450071,,Октябрьский район,Уфа,Уфа городской округ,Республика Башкортостан,Россия,Пн: 00:00-24:00; Вт: 00:00-24:00; Ср: 00:00-24:00; Чт: 00:00-24:00; Пт: 00:00-24:00; Сб: 00:00-24:00; Вс: 00:00-24:00,+05:00,1.1,3,89876122138 (техническая поддержка: круглосуточно),,http://alivewater.ru,,,https://vk.com/alivewater_ru,https://wa.me/79876122138,,,54.745796,56.024706,https://2gis.com/firm/70000001062463750,branch
Живая вода,водомат,Питьевая вода,"Комсомольская, 28",1 этаж,450097,,Октябрьский район,Уфа,Уфа городской округ,Республика Башкортостан,Россия,Пн: 00:00-24:00; Вт: 00:00-24:00; Ср: 00:00-24:00; Чт: 00:00-24:00; Пт: 00:00-24:00; Сб: 00:00-24:00; Вс: 00:00-24:00,+05:00,5.0,1,89876122138 (техническая поддержка: круглосуточно),,http://alivewater.ru,,,https://vk.com/alivewater_ru,https://wa.me/79876122138,,,54.745559,56.000536,https://2gis.com/firm/70000001064480493,branch
Живая вода,водомат,Питьевая вода,"Айская, 37",1 этаж; 4 подъезд,450047,,Кировский район,Уфа,Уфа городской округ,Республика Башкортостан,Россия,Пн: 00:00-24:00; Вт: 00:00-24:00; Ср: 00:00-24:00; Чт: 00:00-24:00; Пт: 00:00-24:00; Сб: 00:00-24:00; Вс: 00:00-24:00,+05:00,1.5,2,89876122138 (техническая поддержка: круглосуточно),,http://alivewater.ru,,,https://vk.com/alivewater_ru,https://wa.me/79876122138,,,54.716927,55.977983,https://2gis.com/firm/70000001038440277,branch
Vodorobot,,Питьевая вода,"Бехтерева, 8",,450047,Дружба м-н,Кировский район,Уфа,Уфа городской округ,Республика Башкортостан,Россия,Пн: 00:00-24:00; Вт: 00:00-24:00; Ср: 00:00-24:00; Чт: 00:00-24:00; Пт: 00:00-24:00; Сб: 00:00-24:00; Вс: 00:00-24:00,+05:00,4.0,1,88001000123,,http://vodorobot.ru,,,https://vk.com/vodorobots,,,,54.712171,55.970455,https://2gis.com/firm/70000001067244230,branch
Vodorobot,,Питьевая вода,"Рабкоров, 5/5",,450092,Зелёная роща м-н,Кировский район,Уфа,Уфа городской округ,Республика Башкортостан,Россия,Пн: 00:00-24:00; Вт: 00:00-24:00; Ср: 00:00-24:00; Чт: 00:00-24:00; Пт: 00:00-24:00; Сб: 00:00-24:00; Вс: 00:00-24:00,+05:00,,,88001000123,,http://vodorobot.ru,,,https://vk.com/vodorobots,,,,54.703463,56.000453,https://2gis.com/firm/70000001067252556,branch
Vodorobot,,Питьевая вода,"проспект Октября, 64",1 этаж,450054,,Октябрьский район,Уфа,Уфа городской округ,Республика Башкортостан,Россия,Пн: 00:00-24:00; Вт: 00:00-24:00; Ср: 00:00-24:00; Чт: 00:00-24:00; Пт: 00:00-24:00; Сб: 00:00-24:00; Вс: 00:00-24:00,+05:00,1.2,2,88001000123,,http://vodorobot.ru,,,https://vk.com/vodorobots,,,,54.758573,56.009474,https://2gis.com/firm/70000001067262903,branch
Vodorobot,,Питьевая вода,"проспект Октября, 70/1",,450054,,Октябрьский район,Уфа,Уфа городской округ,Республика Башкортостан,Россия,Пн: 00:00-24:00; Вт: 00:00-24:00; Ср: 00:00-24:00; Чт: 00:00-24:00; Пт: 00:00-24:00; Сб: 00:00-24:00; Вс: 00:00-24:00,+05:00,,,88001000123,,http://vodorobot.ru,,,https://vk.com/vodorobots,,,,54.760855,56.012533,https://2gis.com/firm/70000001067391343,branch
Vodorobot,,Питьевая вода,"Степана Злобина, 38/2",,450080,Зелёная роща м-н,Советский район,Уфа,Уфа городской округ,Республика Башкортостан,Россия,Пн: 00:00-24:00; Вт: 00:00-24:00; Ср: 00:00-24:00; Чт: 00:00-24:00; Пт: 00:00-24:00; Сб: 00:00-24:00; Вс: 00:00-24:00,+05:00,,,88001000123,,http://vodorobot.ru,,,https://vk.com/vodorobots,,,,54.72209,56.005196,https://2gis.com/firm/70000001069443459,branch
Vodorobot,,Питьевая вода,"Цюрупы, 27",1 этаж,450077,,Кировский район,Уфа,Уфа городской округ,Республика Башкортостан,Россия,Пн: 00:00-24:00; Вт: 00:00-24:00; Ср: 00:00-24:00; Чт: 00:00-24:00; Пт: 00:00-24:00; Сб: 00:00-24:00; Вс: 00:00-24:00,+05:00,3.5,3,88001000123,,http://vodorobot.ru,,,https://vk.com/vodorobots,,,,54.725883,55.952799,https://2gis.com/firm/70000001076296352,branch
Vodorobot,,Питьевая вода,"Владивостокская, 15",1 этаж,450078,,Советский район,Уфа,Уфа городской округ,Республика Башкортостан,Россия,Пн: 00:00-24:00; Вт: 00:00-24:00; Ср: 00:00-24:00; Чт: 00:00-24:00; Пт: 00:00-24:00; Сб: 00:00-24:00; Вс: 00:00-24:00,+05:00,4.0,1,88001000123,,http://vodorobot.ru,,,https://vk.com/vodorobots,,,,54.732982,55.985755,https://2gis.com/firm/70000001076997069,branch
Vodorobot,,Питьевая вода,,,450022,Зелёная роща м-н,Советский район,Уфа,Уфа городской округ,Республика Башкортостан,Россия,Пн: 00:00-24:00; Вт: 00:00-24:00; Ср: 00:00-24:00; Чт: 00:00-24:00; Пт: 00:00-24:00; Сб: 00:00-24:00; Вс: 00:00-24:00,+05:00,5.0,1,88001000123,,http://vodorobot.ru,,,https://vk.com/vodorobots,,,,54.715497,55.998065,https://2gis.com/firm/70000001079688075,branch
Vodorobot,,Питьевая вода,"Кирова, 91",1 этаж,450078,,Кировский район,Уфа,Уфа городской округ,Республика Башкортостан,Россия,Пн: 00:00-24:00; Вт: 00:00-24:00; Ср: 00:00-24:00; Чт: 00:00-24:00; Пт: 00:00-24:00; Сб: 00:00-24:00; Вс: 00:00-24:00,+05:00,2.1,7,88001000123,,http://vodorobot.ru,,,https://vk.com/vodorobots,,,,54.728312,55.973286,https://2gis.com/firm/70000001044015700,branch
Vodorobot,,Питьевая вода,"50 лет СССР, 47",1 этаж,450071,,Октябрьский район,Уфа,Уфа городской округ,Республика Башкортостан,Россия,Пн: 00:00-24:00; Вт: 00:00-24:00; Ср: 00:00-24:00; Чт: 00:00-24:00; Пт: 00:00-24:00; Сб: 00:00-24:00; Вс: 00:00-24:00,+05:00,,,88001000123,,http://vodorobot.ru,,,https://vk.com/vodorobots,,,,54.74525,56.027285,https://2gis.com/firm/70000001083371563,branch
Vodorobot,,Питьевая вода,"Бессонова, 29/1а",,450097,Северный-Посадский м-н,Советский район,Уфа,Уфа городской округ,Республика Башкортостан,Россия,Пн: 00:00-24:00; Вт: 00:00-24:00; Ср: 00:00-24:00; Чт: 00:00-24:00; Пт: 00:00-24:00; Сб: 00:00-24:00; Вс: 00:00-24:00,+05:00,3.7,3,88001000123,,http://vodorobot.ru,,,https://vk.com/vodorobots,,,,54.740138,55.99883,https://2gis.com/firm/70000001086543055,branch
Vodorobot,,Питьевая вода,"Достоевского, 110",1 этаж,450077,,Кировский район,Уфа,Уфа городской округ,Республика Башкортостан,Россия,Пн: 00:00-24:00; Вт: 00:00-24:00; Ср: 00:00-24:00; Чт: 00:00-24:00; Пт: 00:00-24:00; Сб: 00:00-24:00; Вс: 00:00-24:00,+05:00,,,88001000123,,http://vodorobot.ru,,,https://vk.com/vodorobots,,,,54.731308,55.963651,https://2gis.com/firm/70000001088103620,branch
Vodorobot,,Питьевая вода,"Цюрупы, 80",1 этаж,450077,,Кировский район,Уфа,Уфа городской округ,Республика Башкортостан,Россия,Пн: 00:00-24:00; Вт: 00:00-24:00; Ср: 00:00-24:00; Чт: 00:00-24:00; Пт: 00:00-24:00; Сб: 00:00-24:00; Вс: 00:00-24:00,+05:00,4.1,1,88001000123,,http://vodorobot.ru,,,https://vk.com/vodorobots,,,,54.729813,55.956336,https://2gis.com/firm/70000001088930014,branch
Vodorobot,,Питьевая вода,"проспект Октября, 61",,450058,,Октябрьский район,Уфа,Уфа городской округ,Республика Башкортостан,Россия,Пн: 00:00-24:00; Вт: 00:00-24:00; Ср: 00:00-24:00; Чт: 00:00-24:00; Пт: 00:00-24:00; Сб: 00:00-24:00; Вс: 00:00-24:00,+05:00,,,88001000123,,http://vodorobot.ru,,,https://vk.com/vodorobots,,,,54.758612,56.00694,https://2gis.com/firm/70000001091239685,branch
Vodorobot,,Питьевая вода,"Высотная, 14/2",внутри супермаркета Пятерочка,450103,Юрюзань м-н,Кировский район,Уфа,Уфа городской округ,Республика Башкортостан,Россия,Пн: 00:00-24:00; Вт: 00:00-24:00; Ср: 00:00-24:00; Чт: 00:00-24:00; Пт: 00:00-24:00; Сб: 00:00-24:00; Вс: 00:00-24:00,+05:00,,,88001000123,,http://vodorobot.ru,,,https://vk.com/vodorobots,,,,54.703577,55.982018,https://2gis.com/firm/70000001092038333,branch
Vodorobot,,Питьевая вода,"Генерала Горбатова, 9/1",,450022,Зелёная роща м-н,Кировский район,Уфа,Уфа городской округ,Республика Башкортостан,Россия,Пн: 00:00-24:00; Вт: 00:00-24:00; Ср: 00:00-24:00; Чт: 00:00-24:00; Пт: 00:00-24:00; Сб: 00:00-24:00; Вс: 00:00-24:00,+05:00,,,88001000123,,http://vodorobot.ru,,,https://vk.com/vodorobots,,,,54.716249,56.013421,https://2gis.com/firm/70000001092448556,branch
Vodorobot,,Питьевая вода,"бульвар Назара Наджми, 11",,450062,Кузнецовский затон м-н,Кировский район,Уфа,Уфа городской округ,Республика Башкортостан,Россия,Пн: 00:00-24:00; Вт: 00:00-24:00; Ср: 00:00-24:00; Чт: 00:00-24:00; Пт: 00:00-24:00; Сб: 00:00-24:00; Вс: 00:00-24:00,+05:00,1.0,1,88001000123,,http://vodorobot.ru,,,https://vk.com/vodorobots,,,,54.693468,55.968063,https://2gis.com/firm/70000001094113954,branch
Vodorobot,,Питьевая вода,"Коммунистическая, 14",супермаркет Пятёрочка,450076,,Ленинский район,Уфа,Уфа городской округ,Республика Башкортостан,Россия,Пн: 00:00-24:00; Вт: 00:00-24:00; Ср: 00:00-24:00; Чт: 00:00-24:00; Пт: 00:00-24:00; Сб: 00:00-24:00; Вс: 00:00-24:00,+05:00,,,88001000123,,http://vodorobot.ru,,,https://vk.com/vodorobots,,,,54.729429,55.927215,https://2gis.com/firm/70000001094453533,branch
Vodorobot,,Питьевая вода,"Степана Кувыкина, 11",супермаркет Пятёрочка,450106,Урал м-н,Кировский район,Уфа,Уфа городской округ,Республика Башкортостан,Россия,Пн: 00:00-24:00; Вт: 00:00-24:00; Ср: 00:00-24:00; Чт: 00:00-24:00; Пт: 00:00-24:00; Сб: 00:00-24:00; Вс: 00:00-24:00,+05:00,,,88001000123,,http://vodorobot.ru,,,https://vk.com/vodorobots,,,,54.700767,55.995075,https://2gis.com/firm/70000001094589309,branch
Vodorobot,,Питьевая вода,"Красина, 19/1",супермаркет Сабантуй,450076,,Ленинский район,Уфа,Уфа городской округ,Республика Башкортостан,Россия,Пн: 00:00-24:00; Вт: 00:00-24:00; Ср: 00:00-24:00; Чт: 00:00-24:00; Пт: 00:00-24:00; Сб: 00:00-24:00; Вс: 00:00-24:00,+05:00,,,88001000123,,http://vodorobot.ru,,,https://vk.com/vodorobots,,,,54.733983,55.932633,https://2gis.com/firm/70000001095626662,branch
Vodorobot,,Питьевая вода,"Менделеева, 1",,450047,Дружба м-н,Кировский район,Уфа,Уфа городской округ,Республика Башкортостан,Россия,Пн: 00:00-24:00; Вт: 00:00-24:00; Ср: 00:00-24:00; Чт: 00:00-24:00; Пт: 00:00-24:00; Сб: 00:00-24:00; Вс: 00:00-24:00,+05:00,,,88001000123,,http://vodorobot.ru,,,https://vk.com/vodorobots,,,,54.711337,55.971028,https://2gis.com/firm/70000001096090229,branch
Vodorobot,,Питьевая вода,"Софьи Перовской, 48/1",,450062,Южный м-н,Кировский район,Уфа,Уфа городской округ,Республика Башкортостан,Россия,Пн: 00:00-24:00; Вт: 00:00-24:00; Ср: 00:00-24:00; Чт: 00:00-24:00; Пт: 00:00-24:00; Сб: 00:00-24:00; Вс: 00:00-24:00,+05:00,,,88001000123,,http://vodorobot.ru,,,https://vk.com/vodorobots,,,,54.696812,55.987788,https://2gis.com/firm/70000001096238220,branch
Vodorobot,,Питьевая вода,"Менделеева, 104/1",,450106,Зелёная роща м-н,Кировский район,Уфа,Уфа городской округ,Республика Башкортостан,Россия,Пн: 00:00-24:00; Вт: 00:00-24:00; Ср: 00:00-24:00; Чт: 00:00-24:00; Пт: 00:00-24:00; Сб: 00:00-24:00; Вс: 00:00-24:00,+05:00,,,88001000123,,http://vodorobot.ru,,,https://vk.com/vodorobots,,,,54.710785,55.987071,https://2gis.com/firm/70000001096253598,branch
Vodorobot,,Питьевая вода,"Менделеева, 152/3",,450080,Зелёная роща м-н,Советский район,Уфа,Уфа городской округ,Республика Башкортостан,Россия,Пн: 00:00-24:00; Вт: 00:00-24:00; Ср: 00:00-24:00; Чт: 00:00-24:00; Пт: 00:00-24:00; Сб: 00:00-24:00; Вс: 00:00-24:00,+05:00,,,88001000123,,http://vodorobot.ru,,,https://vk.com/vodorobots,,,,54.722122,56.018308,https://2gis.com/firm/70000001076296331,branch
Vodorobot,,Питьевая вода,"Рихарда Зорге, 11",,450059,,Октябрьский район,Уфа,Уфа городской округ,Республика Башкортостан,Россия,Пн: 00:00-24:00; Вт: 00:00-24:00; Ср: 00:00-24:00; Чт: 00:00-24:00; Пт: 00:00-24:00; Сб: 00:00-24:00; Вс: 00:00-24:00,+05:00,,,88001000123,,http://vodorobot.ru,,,https://vk.com/vodorobots,,,,54.750791,55.983638,https://2gis.com/firm/70000001088248212,branch
Vodorobot,,Питьевая вода,,,450071,,Октябрьский район,Уфа,Уфа городской округ,Республика Башкортостан,Россия,Пн: 00:00-24:00; Вт: 00:00-24:00; Ср: 00:00-24:00; Чт: 00:00-24:00; Пт: 00:00-24:00; Сб: 00:00-24:00; Вс: 00:00-24:00,+05:00,1.0,1,88001000123,,http://vodorobot.ru,,,https://vk.com/vodorobots,,,,54.743594,56.026067,https://2gis.com/firm/70000001099317803,branch
Vodorobot,,Питьевая вода,"бульвар Ибрагимова, 21",внутри супермаркета Пятёрочка,450006,Айгуль м-н,Советский район,Уфа,Уфа городской округ,Республика Башкортостан,Россия,Пн: 00:00-24:00; Вт: 00:00-24:00; Ср: 00:00-24:00; Чт: 00:00-24:00; Пт: 00:00-24:00; Сб: 00:00-24:00; Вс: 00:00-24:00,+05:00,,,88001000123,,http://vodorobot.ru,,,https://vk.com/vodorobots,,,,54.743714,55.953859,https://2gis.com/firm/70000001099669207,branch
Vodorobot,,Питьевая вода,"Комсомольская, 31 к1",,450037,,Советский район,Уфа,Уфа городской округ,Республика Башкортостан,Россия,Пн: 00:00-24:00; Вт: 00:00-24:00; Ср: 00:00-24:00; Чт: 00:00-24:00; Пт: 00:00-24:00; Сб: 00:00-24:00; Вс: 00:00-24:00,+05:00,,,88001000123,,http://vodorobot.ru,,,https://vk.com/vodorobots,,,,54.747106,55.999646,https://2gis.com/firm/70000001100563590,branch
Дар Сайрана,пункт продажи воды,Питьевая вода,"Школьный переулок, 33/1",,450018,,Кировский район,Уфа,Уфа городской округ,Республика Башкортостан,Россия,Пн: 00:00-24:00; Вт: 00:00-24:00; Ср: 00:00-24:00; Чт: 00:00-24:00; Пт: 00:00-24:00; Сб: 00:00-24:00; Вс: 00:00-24:00,+05:00,2.5,2,83472232171 (единый номер),89371547644,http://dar-sairana.ru,,,,https://wa.me/79371547644,,,54.703286,55.945858,https://2gis.com/firm/70000001047245075,branch
Дар Сайрана,пункт продажи воды,Питьевая вода,"Братьев Кадомцевых, 1а",,450059,,Советский район,Уфа,Уфа городской округ,Республика Башкортостан,Россия,Пн: 00:00-24:00; Вт: 00:00-24:00; Ср: 00:00-24:00; Чт: 00:00-24:00; Пт: 00:00-24:00; Сб: 00:00-24:00; Вс: 00:00-24:00,+05:00,,,83472232171 (единый номер),89371547644,http://dar-sairana.ru,,,,https://wa.me/79371547644,,,54.752203,55.989455,https://2gis.com/firm/70000001087889685,branch
Урал-аква,водомат,Питьевая вода,"Бакалинская, 68а",,450022,Зелёная роща м-н,Советский район,Уфа,Уфа городской округ,Республика Башкортостан,Россия,Пн: 00:00-24:00; Вт: 00:00-24:00; Ср: 00:00-24:00; Чт: 00:00-24:00; Пт: 00:00-24:00; Сб: 00:00-24:00; Вс: 00:00-24:00,+05:00,2.7,3,89378577727 (единый номер: круглосуточно),,,,,,https://wa.me/79378577727,,,54.721315,55.986615,https://2gis.com/firm/70000001056712099,branch
Урал-аква,водомат,Питьевая вода,"проспект Октября, 40/1а",,450009,,Советский район,Уфа,Уфа городской округ,Республика Башкортостан,Россия,Пн: 00:00-24:00; Вт: 00:00-24:00; Ср: 00:00-24:00; Чт: 00:00-24:00; Пт: 00:00-24:00; Сб: 00:00-24:00; Вс: 00:00-24:00,+05:00,3.2,11,89378577727 (единый номер: круглосуточно),,,,,,https://wa.me/79378577727,,,54.750487,56.000386,https://2gis.com/firm/70000001059790470,branch
Водомир,водомат,Питьевая вода,"Генерала Горбатова, 7",,450022,Зелёная роща м-н,Кировский район,Уфа,Уфа городской округ,Республика Башкортостан,Россия,Пн: 00:00-24:00; Вт: 00:00-24:00; Ср: 00:00-24:00; Чт: 00:00-24:00; Пт: 00:00-24:00; Сб: 00:00-24:00; Вс: 00:00-24:00,+05:00,5.0,1,83472660157,,http://vodomir.su,,,,https://wa.me/79272360157,,,54.717285,56.011378,https://2gis.com/firm/70000001046193693,branch
Водомир,водомат,Питьевая вода,"Гоголя, 79",1 этаж,450052,,Ленинский район,Уфа,Уфа городской округ,Республика Башкортостан,Россия,Пн: 00:00-24:00; Вт: 00:00-24:00; Ср: 00:00-24:00; Чт: 00:00-24:00; Пт: 00:00-24:00; Сб: 00:00-24:00; Вс: 00:00-24:00,+05:00,,,89272360157,,http://vodomir.su,,,,,,,54.733911,55.940268,https://2gis.com/firm/70000001030891762,branch
Водомир,водомат,Питьевая вода,"Дуванский бульвар, 22/1",,450106,Зелёная роща м-н,Кировский район,Уфа,Уфа городской округ,Республика Башкортостан,Россия,Пн: 00:00-24:00; Вт: 00:00-24:00; Ср: 00:00-24:00; Чт: 00:00-24:00; Пт: 00:00-24:00; Сб: 00:00-24:00; Вс: 00:00-24:00,+05:00,3.5,2,89272360157,,http://vodomir.su,,,,,,,54.706993,55.995274,https://2gis.com/firm/70000001045833925,branch
Водомир,водомат,Питьевая вода,"Казанская, 14",1 этаж,450097,Северный-Посадский м-н,Советский район,Уфа,Уфа городской округ,Республика Башкортостан,Россия,Пн: 00:00-24:00; Вт: 00:00-24:00; Ср: 00:00-24:00; Чт: 00:00-24:00; Пт: 00:00-24:00; Сб: 00:00-24:00; Вс: 00:00-24:00,+05:00,,,89272360157,,http://vodomir.su,,,https://vk.com/vodomirsu,,,,54.739951,56.001382,https://2gis.com/firm/70000001039876685,branch
Водомир,водомат,Питьевая вода,"Карла Маркса, 53/1",1 этаж,450015,,Ленинский район,Уфа,Уфа городской округ,Республика Башкортостан,Россия,Пн: 00:00-24:00; Вт: 00:00-24:00; Ср: 00:00-24:00; Чт: 00:00-24:00; Пт: 00:00-24:00; Сб: 00:00-24:00; Вс: 00:00-24:00,+05:00,2.1,5,89272360157,,http://vodomir.su,,,https://vk.com/vodomirsu,,,,54.732785,55.942982,https://2gis.com/firm/70000001028983436,branch
Водомир,водомат,Питьевая вода,"Комсомольская, 106",,450037,,Октябрьский район,Уфа,Уфа городской округ,Республика Башкортостан,Россия,Пн: 00:00-24:00; Вт: 00:00-24:00; Ср: 00:00-24:00; Чт: 00:00-24:00; Пт: 00:00-24:00; Сб: 00:00-24:00; Вс: 00:00-24:00,+05:00,1.4,1,89272360157,,http://vodomir.su,,,,,,,54.751305,56.006531,https://2gis.com/firm/70000001031560619,branch
Водомир,водомат,Питьевая вода,"Комсомольская, 94",,450037,,Октябрьский район,Уфа,Уфа городской округ,Республика Башкортостан,Россия,,+05:00,3.2,1,89272360157,,http://vodomir.su,,,,,,,54.748947,56.00355,https://2gis.com/firm/70000001046242423,branch
Водомир,водомат,Питьевая вода,"Менделеева, 120",1 этаж,450106,Зелёная роща м-н,Кировский район,Уфа,Уфа городской округ,Республика Башкортостан,Россия,Пн: 00:00-24:00; Вт: 00:00-24:00; Ср: 00:00-24:00; Чт: 00:00-24:00; Пт: 00:00-24:00; Сб: 00:00-24:00; Вс: 00:00-24:00,+05:00,2.3,7,83472660157,,http://vodomir.su,,,https://vk.com/vodomirsu,,,,54.712377,55.99526,https://2gis.com/firm/70000001045691759,branch
Водомир,водомат,Питьевая вода,"Минигали Губайдуллина, 11",1 этаж,450022,Зелёная роща м-н,Советский район,Уфа,Уфа городской округ,Республика Башкортостан,Россия,Пн: 00:00-24:00; Вт: 00:00-24:00; Ср: 00:00-24:00; Чт: 00:00-24:00; Пт: 00:00-24:00; Сб: 00:00-24:00; Вс: 00:00-24:00,+05:00,3.1,2,83472660157,,http://vodomir.su,,,,,,,54.71943,56.000079,https://2gis.com/firm/70000001040288592,branch
Водомир,водомат,Питьевая вода,"Минигали Губайдуллина, 17",1 этаж,450022,Зелёная роща м-н,Советский район,Уфа,Уфа городской округ,Республика Башкортостан,Россия,Пн: 00:00-24:00; Вт: 00:00-24:00; Ср: 00:00-24:00; Чт: 00:00-24:00; Пт: 00:00-24:00; Сб: 00:00-24:00; Вс: 00:00-24:00,+05:00,4.0,2,89272360157,,http://vodomir.su,,,,,,,54.721598,55.996433,https://2gis.com/firm/70000001035345521,branch
Водомир,водомат,Питьевая вода,"Минигали Губайдуллина, 21/3",,450022,Зелёная роща м-н,Советский район,Уфа,Уфа городской округ,Республика Башкортостан,Россия,Пн: 00:00-24:00; Вт: 00:00-24:00; Ср: 00:00-24:00; Чт: 00:00-24:00; Пт: 00:00-24:00; Сб: 00:00-24:00; Вс: 00:00-24:00,+05:00,3.7,3,89272360157,,http://vodomir.su,,,https://vk.com/vodomirsu,,,,54.721662,55.989919,https://2gis.com/firm/70000001042616719,branch
Водомир,водомат,Питьевая вода,"Рабкоров, 4/4",,450106,Урал м-н,Кировский район,Уфа,Уфа городской округ,Республика Башкортостан,Россия,Пн: 00:00-24:00; Вт: 00:00-24:00; Ср: 00:00-24:00; Чт: 00:00-24:00; Пт: 00:00-24:00; Сб: 00:00-24:00; Вс: 00:00-24:00,+05:00,1.0,2,89272360157,,http://vodomir.su,,,https://vk.com/vodomirsu,,,,54.701979,55.990311,https://2gis.com/firm/70000001052488599,branch
Водомир,водомат,Питьевая вода,"Революционная, 96/5",1 этаж,450078,,Советский район,Уфа,Уфа городской округ,Республика Башкортостан,Россия,Пн: 00:00-24:00; Вт: 00:00-24:00; Ср: 00:00-24:00; Чт: 00:00-24:00; Пт: 00:00-24:00; Сб: 00:00-24:00; Вс: 00:00-24:00,+05:00,1.9,6,89272360157,,http://vodomir.su,,,https://vk.com/vodomirsu,,,,54.729108,55.984839,https://2gis.com/firm/70000001032356871,branch
Водомир,водомат,Питьевая вода,"Салавата, 15",1 этаж,450057,,Кировский район,Уфа,Уфа городской округ,Республика Башкортостан,Россия,Пн: 00:00-24:00; Вт: 00:00-24:00; Ср: 00:00-24:00; Чт: 00:00-24:00; Пт: 00:00-24:00; Сб: 00:00-24:00; Вс: 00:00-24:00,+05:00,2.6,4,89272360157,,http://vodomir.su,,,,,,,54.713071,55.953531,https://2gis.com/firm/70000001040127565,branch
Водомир,водомат,Питьевая вода,"Софьи Перовской, 15/2",,450103,Урал м-н,Кировский район,Уфа,Уфа городской округ,Республика Башкортостан,Россия,Пн: 00:00-24:00; Вт: 00:00-24:00; Ср: 00:00-24:00; Чт: 00:00-24:00; Пт: 00:00-24:00; Сб: 00:00-24:00; Вс: 00:00-24:00,+05:00,2.5,1,89272360157,,http://vodomir.su,,,,,,,54.699181,55.990589,https://2gis.com/firm/70000001028983433,branch
Водомир,водомат,Питьевая вода,"Софьи Перовской, 38",,450062,Южный м-н,Кировский район,Уфа,Уфа городской округ,Республика Башкортостан,Россия,Пн: 00:00-24:00; Вт: 00:00-24:00; Ср: 00:00-24:00; Чт: 00:00-24:00; Пт: 00:00-24:00; Сб: 00:00-24:00; Вс: 00:00-24:00,+05:00,1.7,1,89272360157,,http://vodomir.su,,,https://vk.com/vodomirsu,,,,54.698734,55.982988,https://2gis.com/firm/70000001032356885,branch
Водомир,водомат,Питьевая вода,"Софьи Перовской, 42/2",,450062,Южный м-н,Кировский район,Уфа,Уфа городской округ,Республика Башкортостан,Россия,Пн: 00:00-24:00; Вт: 00:00-24:00; Ср: 00:00-24:00; Чт: 00:00-24:00; Пт: 00:00-24:00; Сб: 00:00-24:00; Вс: 00:00-24:00,+05:00,5.0,1,89272360157,,http://vodomir.su,,,,,,,54.697381,55.985009,https://2gis.com/firm/70000001034727564,branch
Водомир,водомат,Питьевая вода,"Степана Злобина, 5/3",,450022,Зелёная роща м-н,Советский район,Уфа,Уфа городской округ,Республика Башкортостан,Россия,Пн: 00:00-24:00; Вт: 00:00-24:00; Ср: 00:00-24:00; Чт: 00:00-24:00; Пт: 00:00-24:00; Сб: 00:00-24:00; Вс: 00:00-24:00,+05:00,1.0,2,89272360157,,http://vodomir.su,,,,,,,54.719781,55.994026,https://2gis.com/firm/70000001035397972,branch
Водомир,водомат,Питьевая вода,"Степана Злобина, 6",,450022,Зелёная роща м-н,Советский район,Уфа,Уфа городской округ,Республика Башкортостан,Россия,Пн: 00:00-24:00; Вт: 00:00-24:00; Ср: 00:00-24:00; Чт: 00:00-24:00; Пт: 00:00-24:00; Сб: 00:00-24:00; Вс: 00:00-24:00,+05:00,1.3,4,89272360157,,http://vodomir.su,,,,,,,54.71776,55.995861,https://2gis.com/firm/70000001030254888,branch
Водомир,водомат,Питьевая вода,"бульвар Хадии Давлетшиной, 18",1 этаж,450097,Молодёжный м-н,Советский район,Уфа,Уфа городской округ,Республика Башкортостан,Россия,Пн: 00:00-24:00; Вт: 00:00-24:00; Ср: 00:00-24:00; Чт: 00:00-24:00; Пт: 00:00-24:00; Сб: 00:00-24:00; Вс: 00:00-24:00,+05:00,1.0,2,89272360157,,http://vodomir.su,,,,,,,54.736044,55.990715,https://2gis.com/firm/70000001057538747,branch
Водомир,водомат,Питьевая вода,"Цюрупы, 156/2",,450006,,Советский район,Уфа,Уфа городской округ,Республика Башкортостан,Россия,Пн: 00:00-24:00; Вт: 00:00-24:00; Ср: 00:00-24:00; Чт: 00:00-24:00; Пт: 00:00-24:00; Сб: 00:00-24:00; Вс: 00:00-24:00,+05:00,3.0,2,89272360157,,http://vodomir.su,,,,,,,54.74396,55.964789,https://2gis.com/firm/70000001029921531,branch
Водомир,водомат,Питьевая вода,"Менделеева, 128 к1",,450106,Зелёная роща м-н,Кировский район,Уфа,Уфа городской округ,Республика Башкортостан,Россия,Пн: 00:00-24:00; Вт: 00:00-24:00; Ср: 00:00-24:00; Чт: 00:00-24:00; Пт: 00:00-24:00; Сб: 00:00-24:00; Вс: 00:00-24:00,+05:00,2.0,5,89272360157,,http://vodomir.su,,,,,,,54.713236,56.001046,https://2gis.com/firm/70000001060467348,branch
Водомир,водомат,Питьевая вода,"Кавказская, 17/1",,450103,,Кировский район,Уфа,Уфа городской округ,Республика Башкортостан,Россия,Пн: 00:00-24:00; Вт: 00:00-24:00; Ср: 00:00-24:00; Чт: 00:00-24:00; Пт: 00:00-24:00; Сб: 00:00-24:00; Вс: 00:00-24:00,+05:00,1.0,1,89272360157,,http://vodomir.su,,,,,,,54.707189,55.974994,https://2gis.com/firm/70000001060751457,branch
Водомир,водомат,Питьевая вода,"Бакалинская, 70",,450022,Зелёная роща м-н,Советский район,Уфа,Уфа городской округ,Республика Башкортостан,Россия,Пн: 00:00-24:00; Вт: 00:00-24:00; Ср: 00:00-24:00; Чт: 00:00-24:00; Пт: 00:00-24:00; Сб: 00:00-24:00; Вс: 00:00-24:00,+05:00,4.5,4,89272360157,,http://vodomir.su,,,,,,,54.721343,55.986086,https://2gis.com/firm/70000001062411906,branch
Водомир,водомат,Питьевая вода,"Степана Кувыкина, 39",,450106,Зелёная роща м-н,Кировский район,Уфа,Уфа городской округ,Республика Башкортостан,Россия,Пн: 00:00-24:00; Вт: 00:00-24:00; Ср: 00:00-24:00; Чт: 00:00-24:00; Пт: 00:00-24:00; Сб: 00:00-24:00; Вс: 00:00-24:00,+05:00,1.0,1,89272360157,,http://vodomir.su,,,,,,,54.71113,55.999127,https://2gis.com/firm/70000001098515481,branch
Водомир,водомат,Питьевая вода,"Пархоменко, 133/1",,450006,,Советский район,Уфа,Уфа городской округ,Республика Башкортостан,Россия,Пн: 00:00-24:00; Вт: 00:00-24:00; Ср: 00:00-24:00; Чт: 00:00-24:00; Пт: 00:00-24:00; Сб: 00:00-24:00; Вс: 00:00-24:00,+05:00,1.7,6,83472360157,,http://vodomir.su,,,https://vk.com/vodomirsu,,,,54.742501,55.965493,https://2gis.com/firm/70000001040023196,branch
Водомир,водомат,Питьевая вода,"Бехтерева, 16",,450047,Дружба м-н,Кировский район,Уфа,Уфа городской округ,Республика Башкортостан,Россия,Пн: 00:00-24:00; Вт: 00:00-24:00; Ср: 00:00-24:00; Чт: 00:00-24:00; Пт: 00:00-24:00; Сб: 00:00-24:00; Вс: 00:00-24:00,+05:00,,,89272360157,,http://vodomir.su,,,,,,,54.713941,55.972781,https://2gis.com/firm/70000001100328783,branch
Сила Урала,пункт продажи воды,Питьевая вода,"Гафури, 21/2а",,450093,,Ленинский район,Уфа,Уфа городской округ,Республика Башкортостан,Россия,Пн: 00:00-24:00; Вт: 00:00-24:00; Ср: 00:00-24:00; Чт: 00:00-24:00; Пт: 00:00-24:00; Сб: 00:00-24:00; Вс: 00:00-24:00,+05:00,4.4,5,89279305005,,,,,,,,,54.725892,55.927699,https://2gis.com/firm/70000001060650379,branch
Ахлыстинский родник,,Питьевая вода,"Рабочая, 42/1",,450003,Нижегородка м-н,Ленинский район,Уфа,Уфа городской округ,Республика Башкортостан,Россия,Пн: 00:00-24:00; Вт: 00:00-24:00; Ср: 00:00-24:00; Чт: 00:00-24:00; Пт: 00:00-24:00; Сб: 00:00-24:00; Вс: 00:00-24:00,+05:00,,,,,,,,,,,,54.745112,55.915616,https://2gis.com/firm/70000001065391599,branch
Водомат,,Питьевая вода,"бульвар Хадии Давлетшиной, 24/1",,450097,Молодёжный м-н,Советский район,Уфа,Уфа городской округ,Республика Башкортостан,Россия,Пн: 00:00-24:00; Вт: 00:00-24:00; Ср: 00:00-24:00; Чт: 00:00-24:00; Пт: 00:00-24:00; Сб: 00:00-24:00; Вс: 00:00-24:00,+05:00,,,,,,,,,,,,54.734623,55.992634,https://2gis.com/firm/70000001038358200,branch
Матур су,водомат,Питьевая вода,"Степана Кувыкина, 18/1а",1 этаж,450092,Зелёная роща м-н,Кировский район,Уфа,Уфа городской округ,Республика Башкортостан,Россия,Пн: 00:00-24:00; Вт: 00:00-24:00; Ср: 00:00-24:00; Чт: 00:00-24:00; Пт: 00:00-24:00; Сб: 00:00-24:00; Вс: 00:00-24:00,+05:00,2.1,4,89378577727,,,,,,,,,54.707301,55.999337,https://2gis.com/firm/70000001075038442,branch
Матур су,водомат,Питьевая вода,"Революционная, 31 к1",,450015,,Советский район,Уфа,Уфа городской округ,Республика Башкортостан,Россия,Пн: 00:00-24:00; Вт: 00:00-24:00; Ср: 00:00-24:00; Чт: 00:00-24:00; Пт: 00:00-24:00; Сб: 00:00-24:00; Вс: 00:00-24:00,+05:00,2.3,3,89378577727,,,,,,,,,54.737265,55.944031,https://2gis.com/firm/70000001080241043,branch
Матур су,водомат,Питьевая вода,"Рихарда Зорге, 43/1а",,450083,,Октябрьский район,Уфа,Уфа городской округ,Республика Башкортостан,Россия,Пн: 00:00-24:00; Вт: 00:00-24:00; Ср: 00:00-24:00; Чт: 00:00-24:00; Пт: 00:00-24:00; Сб: 00:00-24:00; Вс: 00:00-24:00,+05:00,2.0,2,89378577727,,,,,,,,,54.761337,55.995253,https://2gis.com/firm/70000001084421470,branch
Матур су,водомат,Питьевая вода,"Рихарда Зорге, 31Б",,450059,,Октябрьский район,Уфа,Уфа городской округ,Республика Башкортостан,Россия,Пн: 00:00-24:00; Вт: 00:00-24:00; Ср: 00:00-24:00; Чт: 00:00-24:00; Пт: 00:00-24:00; Сб: 00:00-24:00; Вс: 00:00-24:00,+05:00,,,89378577727,,,,,,,,,54.755414,55.991808,https://2gis.com/firm/70000001088961933,branch
Матур су,водомат,Питьевая вода,"Кирова, 39Б",,450077,,Кировский район,Уфа,Уфа городской округ,Республика Башкортостан,Россия,Пн: 00:00-24:00; Вт: 00:00-24:00; Ср: 00:00-24:00; Чт: 00:00-24:00; Пт: 00:00-24:00; Сб: 00:00-24:00; Вс: 00:00-24:00,+05:00,1.0,1,89378577727,,,,,,,,,54.729913,55.958453,https://2gis.com/firm/70000001090220840,branch
Матур су,водомат,Питьевая вода,"Братьев Кадомцевых, 11 к2",,450059,,Советский район,Уфа,Уфа городской округ,Республика Башкортостан,Россия,Пн: 00:00-24:00; Вт: 00:00-24:00; Ср: 00:00-24:00; Чт: 00:00-24:00; Пт: 00:00-24:00; Сб: 00:00-24:00; Вс: 00:00-24:00,+05:00,,,89378577727,,,,,,,,,54.75198,55.993984,https://2gis.com/firm/70000001095664751,branch
Чистая вода,автомат питьевой воды,Питьевая вода,"Бакалинская, 19",,450047,Зелёная роща м-н,Кировский район,Уфа,Уфа городской округ,Республика Башкортостан,Россия,Пн: 00:00-24:00; Вт: 00:00-24:00; Ср: 00:00-24:00; Чт: 00:00-24:00; Пт: 00:00-24:00; Сб: 00:00-24:00; Вс: 00:00-24:00,+05:00,1.0,2,88002508001 (техническая поддержка),,http://aquacapital.ru,,,,,https://t.me/Elya0139,,54.716829,55.988364,https://2gis.com/firm/70000001088049610,branch
Чистая вода,автомат питьевой воды,Питьевая вода,"Рабкоров, 7а",,450092,Зелёная роща м-н,Кировский район,Уфа,Уфа городской округ,Республика Башкортостан,Россия,Пн: 00:00-24:00; Вт: 00:00-24:00; Ср: 00:00-24:00; Чт: 00:00-24:00; Пт: 00:00-24:00; Сб: 00:00-24:00; Вс: 00:00-24:00,+05:00,,,88002508001 (техническая поддержка),,http://aquacapital.ru,,,,,https://t.me/Elya0139,,54.703335,56.001748,https://2gis.com/firm/70000001092797916,branch
Чистая вода,водомат,Питьевая вода,"Караидельская, 54/1",1 этаж,450047,Зелёная роща м-н,Кировский район,Уфа,Уфа городской округ,Республика Башкортостан,Россия,Пн: 00:00-24:00; Вт: 00:00-24:00; Ср: 00:00-24:00; Чт: 00:00-24:00; Пт: 00:00-24:00; Сб: 00:00-24:00; Вс: 00:00-24:00,+05:00,,,89373003764,,,,,,https://wa.me/79373003764,,,54.714468,55.989881,https://2gis.com/firm/70000001079019091,branch
Третий кран,водомат,Питьевая вода,"Революционная, 34/1",,450077,,Ленинский район,Уфа,Уфа городской округ,Республика Башкортостан,Россия,Пн: 00:00-24:00; Вт: 00:00-24:00; Ср: 00:00-24:00; Чт: 00:00-24:00; Пт: 00:00-24:00; Сб: 00:00-24:00; Вс: 00:00-24:00,+05:00,4.2,5,89279501619,,,,,,,,,54.734101,55.955916,https://2gis.com/firm/70000001036445994,branch
Матур СУ,,Питьевая вода,,,450022,Зелёная роща м-н,Советский район,Уфа,Уфа городской округ,Республика Башкортостан,Россия,Пн: 00:00-24:00; Вт: 00:00-24:00; Ср: 00:00-24:00; Чт: 00:00-24:00; Пт: 00:00-24:00; Сб: 00:00-24:00; Вс: 00:00-24:00,+05:00,1.0,1,,,,,,,,,,54.721312,55.987899,https://2gis.com/firm/70000001080883631,branch
Артезианская вода,водомат,Питьевая вода,,,450022,Зелёная роща м-н,Кировский район,Уфа,Уфа городской округ,Республика Башкортостан,Россия,Пн: 00:00-24:00; Вт: 00:00-24:00; Ср: 00:00-24:00; Чт: 00:00-24:00; Пт: 00:00-24:00; Сб: 00:00-24:00; Вс: 00:00-24:00,+05:00,5.0,1,,,,,,,,,,54.717809,56.010672,https://2gis.com/firm/70000001081025657,branch
Урал аква,водомат,Питьевая вода,,,450078,,Советский район,Уфа,Уфа городской округ,Республика Башкортостан,Россия,Пн: 00:00-24:00; Вт: 00:00-24:00; Ср: 00:00-24:00; Чт: 00:00-24:00; Пт: 00:00-24:00; Сб: 00:00-24:00; Вс: 00:00-24:00,+05:00,,,,,,,,,,,,54.732732,55.985863,https://2gis.com/firm/70000001080147813,branch
Урал аква,водомат,Питьевая вода,"Айская, 76",,450078,,Советский район,Уфа,Уфа городской округ,Республика Башкортостан,Россия,Пн: 00:00-24:00; Вт: 00:00-24:00; Ср: 00:00-24:00; Чт: 00:00-24:00; Пт: 00:00-24:00; Сб: 00:00-24:00; Вс: 00:00-24:00,+05:00,1.7,2,,,,,,,,,,54.73322,55.980124,https://2gis.com/firm/70000001080147823,branch
Чистая вода,водомат,Питьевая вода,"Рихарда Зорге, 44",,450083,,Октябрьский район,Уфа,Уфа городской округ,Республика Башкортостан,Россия,Пн: 00:00-24:00; Вт: 00:00-24:00; Ср: 00:00-24:00; Чт: 00:00-24:00; Пт: 00:00-24:00; Сб: 00:00-24:00; Вс: 00:00-24:00,+05:00,4.2,4,89631320908,,,,,,,,,54.759357,55.99884,https://2gis.com/firm/70000001085368277,branch
Родная вода,пункт продажи воды,Питьевая вода,"Комсомольская, 15 к1",,450001,,Советский район,Уфа,Уфа городской округ,Республика Башкортостан,Россия,Пн: 00:00-24:00; Вт: 00:00-24:00; Ср: 00:00-24:00; Чт: 00:00-24:00; Пт: 00:00-24:00; Сб: 00:00-24:00; Вс: 00:00-24:00,+05:00,,,89962926706,,,,,,,,,54.741155,55.99173,https://2gis.com/firm/70000001089728373,branch
Аква Капитал,водомат,Питьевая вода,"Менделеева, 7/3",,450047,Дружба м-н,Кировский район,Уфа,Уфа городской округ,Республика Башкортостан,Россия,Пн: 00:00-24:00; Вт: 00:00-24:00; Ср: 00:00-24:00; Чт: 00:00-24:00; Пт: 00:00-24:00; Сб: 00:00-24:00; Вс: 00:00-24:00,+05:00,,,89535523055,88002508001,http://aquacapital.ru,,,,,,,54.711093,55.97313,https://2gis.com/firm/70000001090349105,branch
Аква Капитал,водомат,Питьевая вода,,,450097,Молодёжный м-н,Советский район,Уфа,Уфа городской округ,Республика Башкортостан,Россия,Пн: 00:00-24:00; Вт: 00:00-24:00; Ср: 00:00-24:00; Чт: 00:00-24:00; Пт: 00:00-24:00; Сб: 00:00-24:00; Вс: 00:00-24:00,+05:00,,,89535523055,88002508001,http://aquacapital.ru,,,,,,,54.734496,55.998844,https://2gis.com/firm/70000001090349190,branch
Чистая питьевая вода,,Питьевая вода,,,450006,,Советский район,Уфа,Уфа городской округ,Республика Башкортостан,Россия,Пн: 00:00-24:00; Вт: 00:00-24:00; Ср: 00:00-24:00; Чт: 00:00-24:00; Пт: 00:00-24:00; Сб: 00:00-24:00; Вс: 00:00-24:00,+05:00,1.0,1,,,,,,,,,,54.738104,55.970173,https://2gis.com/firm/70000001094453845,branch
Автомат чистой питьевой воды,,Питьевая вода,,,450006,,Советский район,Уфа,Уфа городской округ,Республика Башкортостан,Россия,Пн: 00:00-24:00; Вт: 00:00-24:00; Ср: 00:00-24:00; Чт: 00:00-24:00; Пт: 00:00-24:00; Сб: 00:00-24:00; Вс: 00:00-24:00,+05:00,,,,,,,,,,,,54.738759,55.96921,https://2gis.com/firm/70000001094631159,branch
Водомат,,Питьевая вода,,,450077,,Кировский район,Уфа,Уфа городской округ,Республика Башкортостан,Россия,Пн: 00:00-24:00; Вт: 00:00-24:00; Ср: 00:00-24:00; Чт: 00:00-24:00; Пт: 00:00-24:00; Сб: 00:00-24:00; Вс: 00:00-24:00,+05:00,5.0,1,89174489763,,http://alivewater.ru,,,https://vk.com/alivewater_ru,,,,54.731499,55.96258,https://2gis.com/firm/70000001059777200,branch
Водомат,,Питьевая вода,"Степана Халтурина, 46Б",,450059,,Советский район,Уфа,Уфа городской округ,Республика Башкортостан,Россия,Пн: 00:00-24:00; Вт: 00:00-24:00; Ср: 00:00-24:00; Чт: 00:00-24:00; Пт: 00:00-24:00; Сб: 00:00-24:00; Вс: 00:00-24:00,+05:00,5.0,3,89174489763,,http://alivewater.ru,,,https://vk.com/alivewater_ru,,,,54.746199,55.988694,https://2gis.com/firm/70000001059781244,branch
Водомат,,Питьевая вода,"Революционная, 80а",вход со двора,450005,Айский м-н,Советский район,Уфа,Уфа городской округ,Республика Башкортостан,Россия,Пн: 00:00-24:00; Вт: 00:00-24:00; Ср: 00:00-24:00; Чт: 00:00-24:00; Пт: 00:00-24:00; Сб: 00:00-24:00; Вс: 00:00-24:00,+05:00,5.0,3,89174489763,,http://alivewater.ru,,,https://vk.com/alivewater_ru,,,,54.732066,55.974573,https://2gis.com/firm/70000001088101163,branch
Водомат,,Питьевая вода,"Рихарда Зорге, 49Б",слева от пекарни Лисичкин хлеб,450083,,Октябрьский район,Уфа,Уфа городской округ,Республика Башкортостан,Россия,Пн: 00:00-24:00; Вт: 00:00-24:00; Ср: 00:00-24:00; Чт: 00:00-24:00; Пт: 00:00-24:00; Сб: 00:00-24:00; Вс: 00:00-24:00,+05:00,4.3,3,89174489763,,http://alivewater.ru,,,https://vk.com/alivewater_ru,,,,54.763594,56.002023,https://2gis.com/firm/70000001075265738,branch
Водомат,,Питьевая вода,"Гафури, 4",1 этаж,450093,,Кировский район,Уфа,Уфа городской округ,Республика Башкортостан,Россия,Пн: 00:00-24:00; Вт: 00:00-24:00; Ср: 00:00-24:00; Чт: 00:00-24:00; Пт: 00:00-24:00; Сб: 00:00-24:00; Вс: 00:00-24:00,+05:00,4.3,9,89174489763,,http://alivewater.ru,,,https://vk.com/alivewater_ru,,,,54.723526,55.928194,https://2gis.com/firm/70000001063304000,branch
Водомат,,Питьевая вода,"Революционная, 131а",за пекарней Лисичкин хлеб,450005,,Советский район,Уфа,Уфа городской округ,Республика Башкортостан,Россия,Пн: 00:00-24:00; Вт: 00:00-24:00; Ср: 00:00-24:00; Чт: 00:00-24:00; Пт: 00:00-24:00; Сб: 00:00-24:00; Вс: 00:00-24:00,+05:00,3.4,8,89174489763,,http://alivewater.ru,,,https://vk.com/alivewater_ru,,,,54.733266,55.969904,https://2gis.com/firm/70000001059781275,branch
Живая вода,водомат,Питьевая вода,"бульвар Назара Наджми, 11",,450062,Кузнецовский затон м-н,Кировский район,Уфа,Уфа городской округ,Республика Башкортостан,Россия,Пн: 00:00-24:00; Вт: 00:00-24:00; Ср: 00:00-24:00; Чт: 00:00-24:00; Пт: 00:00-24:00; Сб: 00:00-24:00; Вс: 00:00-24:00,+05:00,,,89177837466,,http://alivewater.ru,,,,,,,54.693369,55.968381,https://2gis.com/firm/70000001047528079,branch
Водомир,водомат,Питьевая вода,"Загира Исмагилова, 6",,450062,Южный м-н,Кировский район,Уфа,Уфа городской округ,Республика Башкортостан,Россия,Пн: 00:00-24:00; Вт: 00:00-24:00; Ср: 00:00-24:00; Чт: 00:00-24:00; Пт: 00:00-24:00; Сб: 00:00-24:00; Вс: 00:00-24:00,+05:00,3.0,1,89272360157,,http://vodomir.su,,,,,,,54.695791,55.985162,https://2gis.com/firm/70000001034473475,branch
Vodorobot,,Питьевая вода,"Комсомольская, 143",,450096,,Октябрьский район,Уфа,Уфа городской округ,Республика Башкортостан,Россия,Пн: 00:00-24:00; Вт: 00:00-24:00; Ср: 00:00-24:00; Чт: 00:00-24:00; Пт: 00:00-24:00; Сб: 00:00-24:00; Вс: 00:00-24:00,+05:00,2.3,3,88001000123,,http://vodorobot.ru,,,https://vk.com/vodorobots,,,,54.760657,56.017235,https://2gis.com/firm/70000001055965851,branch
Vodorobot,,Питьевая вода,"Загира Исмагилова, 5",супермаркет Пятёрочка,450062,Южный м-н,Кировский район,Уфа,Уфа городской округ,Республика Башкортостан,Россия,Пн: 08:00-23:00; Вт: 08:00-23:00; Ср: 08:00-23:00; Чт: 08:00-23:00; Пт: 08:00-23:00; Сб: 08:00-23:00; Вс: 08:00-23:00,+05:00,,,88001000123,,http://vodorobot.ru,,,https://vk.com/vodorobots,,,,54.69542,55.984567,https://2gis.com/firm/70000001090136515,branch
Vodorobot,,Питьевая вода,"Энтузиастов, 1в",,450096,,Октябрьский район,Уфа,Уфа городской округ,Республика Башкортостан,Россия,Пн: 00:00-24:00; Вт: 00:00-24:00; Ср: 00:00-24:00; Чт: 00:00-24:00; Пт: 00:00-24:00; Сб: 00:00-24:00; Вс: 00:00-24:00,+05:00,,,88001000123,,http://vodorobot.ru,,,https://vk.com/vodorobots,,,,54.756672,56.021901,https://2gis.com/firm/70000001067222501,branch
Красная горкa,водомат,Питьевая вода,"Комсомольская, 143а",,450096,,Октябрьский район,Уфа,Уфа городской округ,Республика Башкортостан,Россия,Пн: 00:00-24:00; Вт: 00:00-24:00; Ср: 00:00-24:00; Чт: 00:00-24:00; Пт: 00:00-24:00; Сб: 00:00-24:00; Вс: 00:00-24:00,+05:00,1.0,2,89373416177 (единый номер: пн-вс 8:00-21:00),,http://ufa.zakazvoda.com,,,https://vk.com/vodakrasnayagorka,,,,54.760649,56.017464,https://2gis.com/firm/70000001040937810,branch
Водомир,водомат,Питьевая вода,"Лесотехникума, 26/2",,450096,,Октябрьский район,Уфа,Уфа городской округ,Республика Башкортостан,Россия,Пн: 00:00-24:00; Вт: 00:00-24:00; Ср: 00:00-24:00; Чт: 00:00-24:00; Пт: 00:00-24:00; Сб: 00:00-24:00; Вс: 00:00-24:00,+05:00,1.6,7,89272360157,,http://vodomir.su,,,,,,,54.757812,56.021068,https://2gis.com/firm/70000001036834364,branch
Красная горкa,водомат,Питьевая вода,"Энтузиастов, 1 к1",,450096,,Октябрьский район,Уфа,Уфа городской округ,Республика Башкортостан,Россия,Пн: 00:00-24:00; Вт: 00:00-24:00; Ср: 00:00-24:00; Чт: 00:00-24:00; Пт: 00:00-24:00; Сб: 00:00-24:00; Вс: 00:00-24:00,+05:00,1.7,1,89373416177 (единый номер: пн-вс 8:00-21:00),,http://ufa.zakazvoda.com,,,https://vk.com/vodakrasnayagorka,,,,54.756706,56.022264,https://2gis.com/firm/70000001027000538,branch
Первая,водомат,Питьевая вода,"Авроры, 17/1",,450092,Белореченский м-н,Кировский район,Уфа,Уфа городской округ,Республика Башкортостан,Россия,Пн: 00:00-24:00; Вт: 00:00-24:00; Ср: 00:00-24:00; Чт: 00:00-24:00; Пт: 00:00-24:00; Сб: 00:00-24:00; Вс: 00:00-24:00,+05:00,1.0,3,,,,,,,,,,54.700904,56.005042,https://2gis.com/firm/70000001079648811,branch
Красная горкa,водомат,Питьевая вода,,,450071,,Октябрьский район,Уфа,Уфа городской округ,Республика Башкортостан,Россия,Пн: 00:00-24:00; Вт: 00:00-24:00; Ср: 00:00-24:00; Чт: 00:00-24:00; Пт: 00:00-24:00; Сб: 00:00-24:00; Вс: 00:00-24:00,+05:00,,,89373416177 (единый номер: пн-вс 8:00-21:00),,http://ufa.zakazvoda.com,,,https://vk.com/vodakrasnayagorka,,,,54.748796,56.030111,https://2gis.com/firm/70000001098114603,branch
Живая вода,водомат,Питьевая вода,,,450007,,Ленинский район,Уфа,Уфа городской округ,Республика Башкортостан,Россия,Пн: 00:00-24:00; Вт: 00:00-24:00; Ср: 00:00-24:00; Чт: 00:00-24:00; Пт: 00:00-24:00; Сб: 00:00-24:00; Вс: 00:00-24:00,+05:00,3.0,2,89876122138 (техническая поддержка: круглосуточно),,http://alivewater.ru,,,https://vk.com/alivewater_ru,https://wa.me/79876122138,,,54.77957,55.961369,https://2gis.com/firm/70000001080476627,branch
Урал-аква,водомат,Питьевая вода,,,450096,,Октябрьский район,Уфа,Уфа городской округ,Республика Башкортостан,Россия,,+05:00,5.0,1,89378577727,,,,,,,,,54.762807,56.019841,https://2gis.com/firm/70000001095562301,branch
Vodorobot,,Питьевая вода,"Софьи Перовской, 21/1",,450092,Белореченский м-н,Кировский район,Уфа,Уфа городской округ,Республика Башкортостан,Россия,Пн: 00:00-24:00; Вт: 00:00-24:00; Ср: 00:00-24:00; Чт: 00:00-24:00; Пт: 00:00-24:00; Сб: 00:00-24:00; Вс: 00:00-24:00,+05:00,1.0,1,88001000123,,http://vodorobot.ru,,,https://vk.com/vodorobots,,,,54.696306,55.998518,https://2gis.com/firm/70000001067222420,branch
Шатлык-люкс,водомат,Питьевая вода,"Авроры, 7/9а",,450092,Белореченский м-н,Кировский район,Уфа,Уфа городской округ,Республика Башкортостан,Россия,Пн: 00:00-24:00; Вт: 00:00-24:00; Ср: 00:00-24:00; Чт: 00:00-24:00; Пт: 00:00-24:00; Сб: 00:00-24:00; Вс: 00:00-24:00,+05:00,3.2,2,,,,,,,,,,54.698354,56.004113,https://2gis.com/firm/70000001032930763,branch
Урал Аква,,Питьевая вода,"Софьи Перовской, 21а",,450092,Белореченский м-н,Кировский район,Уфа,Уфа городской округ,Республика Башкортостан,Россия,Пн: 00:00-24:00; Вт: 00:00-24:00; Ср: 00:00-24:00; Чт: 00:00-24:00; Пт: 00:00-24:00; Сб: 00:00-24:00; Вс: 00:00-24:00,+05:00,3.0,4,,,,,,,,,,54.695908,55.997799,https://2gis.com/firm/70000001061734325,branch
Живая вода,водомат,Питьевая вода,"Просвещения, 5",,450062,Кузнецовский затон м-н,Кировский район,Уфа,Уфа городской округ,Республика Башкортостан,Россия,Пн: 00:00-24:00; Вт: 00:00-24:00; Ср: 00:00-24:00; Чт: 00:00-24:00; Пт: 00:00-24:00; Сб: 00:00-24:00; Вс: 00:00-24:00,+05:00,,,89177837466,,http://alivewater.ru,,,,,,,54.690265,55.969427,https://2gis.com/firm/70000001063100453,branch
Vodorobot,,Питьевая вода,"Менделеева, 225",,450071,,Октябрьский район,Уфа,Уфа городской округ,Республика Башкортостан,Россия,Пн: 00:00-24:00; Вт: 00:00-24:00; Ср: 00:00-24:00; Чт: 00:00-24:00; Пт: 00:00-24:00; Сб: 00:00-24:00; Вс: 00:00-24:00,+05:00,5.0,1,88001000123,,http://vodorobot.ru,,,https://vk.com/vodorobots,,,,54.752445,56.031185,https://2gis.com/firm/70000001067221865,branch
Водалей,водомат,Питьевая вода,"Менделеева, 229",,450071,,Октябрьский район,Уфа,Уфа городской округ,Республика Башкортостан,Россия,Пн: 00:00-24:00; Вт: 00:00-24:00; Ср: 00:00-24:00; Чт: 00:00-24:00; Пт: 00:00-24:00; Сб: 00:00-24:00; Вс: 00:00-24:00,+05:00,3.0,4,89174958119 (техническая поддержка: пн-вс 9:00-22:00),,,,,,https://wa.me/79174958119,,,54.753201,56.031341,https://2gis.com/firm/70000001037389211,branch
Сила Урала,,Питьевая вода,,,450092,Белореченский м-н,Кировский район,Уфа,Уфа городской округ,Республика Башкортостан,Россия,Пн: 00:00-24:00; Вт: 00:00-24:00; Ср: 00:00-24:00; Чт: 00:00-24:00; Пт: 00:00-24:00; Сб: 00:00-24:00; Вс: 00:00-24:00,+05:00,,,89279305005,,,,,,https://wa.me/79279305005,,,54.696307,56.00087,https://2gis.com/firm/70000001089659867,branch
Сила Урала,,Питьевая вода,"Максима Рыльского, 18/1",,450105,Сипайлово м-н,Октябрьский район,Уфа,Уфа городской округ,Республика Башкортостан,Россия,Пн: 10:00-21:00; Вт: 10:00-21:00; Ср: 10:00-21:00; Чт: 10:00-21:00; Пт: 10:00-21:00; Сб: 10:00-21:00; Вс: 10:00-21:00,+05:00,5.0,4,89279305005,,,,,,https://wa.me/79279305005,,,54.765921,56.073157,https://2gis.com/firm/70000001060985238,branch
Vodorobot,,Питьевая вода,,,450075,,Октябрьский район,Уфа,Уфа городской округ,Республика Башкортостан,Россия,Пн: 00:00-24:00; Вт: 00:00-24:00; Ср: 00:00-24:00; Чт: 00:00-24:00; Пт: 00:00-24:00; Сб: 00:00-24:00; Вс: 00:00-24:00,+05:00,,,88001000123,,http://vodorobot.ru,,,https://vk.com/vodorobots,,,,54.768999,56.012555,https://2gis.com/firm/70000001076296353,branch
Водомат,,Питьевая вода,"Авроры, 5/2",,450092,Белореченский м-н,Кировский район,Уфа,Уфа городской округ,Республика Башкортостан,Россия,Пн: 00:00-24:00; Вт: 00:00-24:00; Ср: 00:00-24:00; Чт: 00:00-24:00; Пт: 00:00-24:00; Сб: 00:00-24:00; Вс: 00:00-24:00,+05:00,5.0,2,89174489763,,http://alivewater.ru,,,https://vk.com/alivewater_ru,,,,54.696158,56.001368,https://2gis.com/firm/70000001063304042,branch
Живая вода,автомат по продаже воды,Питьевая вода,"Просвещения, 11",,450062,Кузнецовский затон м-н,Кировский район,Уфа,Уфа городской округ,Республика Башкортостан,Россия,Пн: 00:00-24:00; Вт: 00:00-24:00; Ср: 00:00-24:00; Чт: 00:00-24:00; Пт: 00:00-24:00; Сб: 00:00-24:00; Вс: 00:00-24:00,+05:00,3.3,7,,,,,,,,,,54.689635,55.972192,https://2gis.com/firm/70000001044499145,branch
Водомир,водомат,Питьевая вода,"Рихарда Зорге, 68",1 этаж,450075,,Октябрьский район,Уфа,Уфа городской округ,Республика Башкортостан,Россия,Пн: 00:00-24:00; Вт: 00:00-24:00; Ср: 00:00-24:00; Чт: 00:00-24:00; Пт: 00:00-24:00; Сб: 00:00-24:00; Вс: 00:00-24:00,+05:00,,,89272360157,,http://vodomir.su,,,,,,,54.768972,56.013075,https://2gis.com/firm/70000001028758076,branch
Живая вода,водоматы,Питьевая вода,"Муксинова, 7",,450103,Зелёная роща м-н,Кировский район,Уфа,Уфа городской округ,Республика Башкортостан,Россия,Пн: 00:00-24:00; Вт: 00:00-24:00; Ср: 00:00-24:00; Чт: 00:00-24:00; Пт: 00:00-24:00; Сб: 00:00-24:00; Вс: 00:00-24:00,+05:00,,,,,,,,,,,,54.694008,55.995366,https://2gis.com/firm/70000001081089653,branch
Дар Сайрана,пункт продажи воды,Питьевая вода,"Центральная, 137 к3",,450522,,,,Уфимский район,Республика Башкортостан,Россия,Пн: 00:00-24:00; Вт: 00:00-24:00; Ср: 00:00-24:00; Чт: 00:00-24:00; Пт: 00:00-24:00; Сб: 00:00-24:00; Вс: 00:00-24:00,+05:00,2.3,4,83472232171 (единый номер),89371547644,http://dar-sairana.ru,,,,https://wa.me/79371547644,,,54.622728,55.90929,https://2gis.com/firm/70000001047244217,branch
Дар Сайрана,пункт продажи воды,Питьевая вода,"Шота Руставели, 17 киоск",,450081,,Орджоникидзевский район,Уфа,Уфа городской округ,Республика Башкортостан,Россия,Пн: 00:00-24:00; Вт: 00:00-24:00; Ср: 00:00-24:00; Чт: 00:00-24:00; Пт: 00:00-24:00; Сб: 00:00-24:00; Вс: 00:00-24:00,+05:00,3.6,8,83472232171 (единый номер),89371547644,http://dar-sairana.ru,,,,https://wa.me/79371547644,,,54.791592,56.044826,https://2gis.com/firm/70000001030945123,branch
Водомир,водомат,Питьевая вода,"Рихарда Зорге, 70/1",1 этаж,450075,,Октябрьский район,Уфа,Уфа городской округ,Республика Башкортостан,Россия,Пн: 00:00-24:00; Вт: 00:00-24:00; Ср: 00:00-24:00; Чт: 00:00-24:00; Пт: 00:00-24:00; Сб: 00:00-24:00; Вс: 00:00-24:00,+05:00,,,89272360157,,http://vodomir.su,,,,,,,54.768272,56.014626,https://2gis.com/firm/70000001045269738,branch
Красная горкa,водомат,Питьевая вода,"Габдуллы Амантая, 1/1 к1",,450062,Колгуевский м-н,Кировский район,Уфа,Уфа городской округ,Республика Башкортостан,Россия,Пн: 00:00-24:00; Вт: 00:00-24:00; Ср: 00:00-24:00; Чт: 00:00-24:00; Пт: 00:00-24:00; Сб: 00:00-24:00; Вс: 00:00-24:00,+05:00,,,89373416177 (единый номер: пн-вс 8:00-21:00),,http://ufa.zakazvoda.com,,,https://vk.com/vodakrasnayagorka,,,,54.692776,55.99284,https://2gis.com/firm/70000001029035993,branch
Живая вoда,водомат,Питьевая вода,"Комсомольская, 161",,450096,,Октябрьский район,Уфа,Уфа городской округ,Республика Башкортостан,Россия,Пн: 00:00-24:00; Вт: 00:00-24:00; Ср: 00:00-24:00; Чт: 00:00-24:00; Пт: 00:00-24:00; Сб: 00:00-24:00; Вс: 00:00-24:00,+05:00,3.0,1,,,http://alivewater.ru,,,,,,,54.764065,56.023431,https://2gis.com/firm/70000001068730539,branch
Живая вода,водомат,Питьевая вода,,,450075,,Октябрьский район,Уфа,Уфа городской округ,Республика Башкортостан,Россия,Пн: 00:00-24:00; Вт: 00:00-24:00; Ср: 00:00-24:00; Чт: 00:00-24:00; Пт: 00:00-24:00; Сб: 00:00-24:00; Вс: 00:00-24:00,+05:00,3.2,2,89876122138 (техническая поддержка: круглосуточно),,http://alivewater.ru,,,https://vk.com/alivewater_ru,https://wa.me/79876122138,,,54.77048,56.013316,https://2gis.com/firm/70000001067420971,branch
Vodorobot,,Питьевая вода,"Габдуллы Амантая, 5",,450062,Колгуевский м-н,Кировский район,Уфа,Уфа городской округ,Республика Башкортостан,Россия,Пн: 00:00-24:00; Вт: 00:00-24:00; Ср: 00:00-24:00; Чт: 00:00-24:00; Пт: 00:00-24:00; Сб: 00:00-24:00; Вс: 00:00-24:00,+05:00,1.0,1,88001000123,,http://vodorobot.ru,,,https://vk.com/vodorobots,,,,54.691274,55.990619,https://2gis.com/firm/70000001067200532,branch
Дар Сайрана,пункт продажи воды,Питьевая вода,"Испытателей, 1 к1",,450062,Кузнецовский затон м-н,Кировский район,Уфа,Уфа городской округ,Республика Башкортостан,Россия,Пн: 00:00-24:00; Вт: 00:00-24:00; Ср: 00:00-24:00; Чт: 00:00-24:00; Пт: 00:00-24:00; Сб: 00:00-24:00; Вс: 00:00-24:00,+05:00,,,83472232171 (единый номер),89371547644,http://dar-sairana.ru,,,,https://wa.me/79371547644,,,54.688783,55.985368,https://2gis.com/firm/70000001100112174,branch
Живая вода,водомат,Питьевая вода,"Муксинова, 2/3",вход с торца; вход с пунктом выдачи Wildberries,450062,Колгуевский м-н,Кировский район,Уфа,Уфа городской округ,Республика Башкортостан,Россия,Пн: 00:00-24:00; Вт: 00:00-24:00; Ср: 00:00-24:00; Чт: 00:00-24:00; Пт: 00:00-24:00; Сб: 00:00-24:00; Вс: 00:00-24:00,+05:00,5.0,1,89874816755,,http://alivewater.ru,http://rutube.ru/channel/42058286,,https://vk.com/alivewater_ru,https://wa.me/79874816755,,https://youtube.com/@-..313,54.690805,55.996194,https://2gis.com/firm/70000001081683414,branch
Vodorobot,,Питьевая вода,"Архитектора Рехмукова, 5",супермаркет Магнит,450098,Планета м-н,Октябрьский район,Уфа,Уфа городской округ,Республика Башкортостан,Россия,Пн: 09:00-23:00; Вт: 09:00-23:00; Ср: 09:00-23:00; Чт: 09:00-23:00; Пт: 09:00-23:00; Сб: 09:00-23:00; Вс: 09:00-23:00,+05:00,1.2,2,88001000123,,http://vodorobot.ru,,,https://vk.com/vodorobots,,,,54.764199,56.028631,https://2gis.com/firm/70000001065305150,branch
Живая вoда,водомат,Питьевая вода,"Ахметова, 154",,450017,,Ленинский район,Уфа,Уфа городской округ,Республика Башкортостан,Россия,,+05:00,2.3,1,,,http://alivewater.ru,,,,,,,54.769977,55.897338,https://2gis.com/firm/70000001090112086,branch
Шатлык-люкс,водомат,Питьевая вода,"Габдуллы Амантая, 6Б",,450062,Колгуевский м-н,Кировский район,Уфа,Уфа городской округ,Республика Башкортостан,Россия,Пн: 00:00-24:00; Вт: 00:00-24:00; Ср: 00:00-24:00; Чт: 00:00-24:00; Пт: 00:00-24:00; Сб: 00:00-24:00; Вс: 00:00-24:00,+05:00,4.0,8,,,,,,,,,,54.689215,55.993833,https://2gis.com/firm/70000001029036100,branch
Красная горкa,водомат,Питьевая вода,"Рудольфа Нуреева, 14Б",,450098,Планета м-н,Октябрьский район,Уфа,Уфа городской округ,Республика Башкортостан,Россия,Пн: 00:00-24:00; Вт: 00:00-24:00; Ср: 00:00-24:00; Чт: 00:00-24:00; Пт: 00:00-24:00; Сб: 00:00-24:00; Вс: 00:00-24:00,+05:00,2.6,2,89373416177 (единый номер: пн-вс 8:00-21:00),,http://ufa.zakazvoda.com,,,https://vk.com/vodakrasnayagorka,,,,54.762345,56.033079,https://2gis.com/firm/70000001033303939,branch
Водалей,водомат,Питьевая вода,"Рудольфа Нуреева, 14",1 этаж,450098,Планета м-н,Октябрьский район,Уфа,Уфа городской округ,Республика Башкортостан,Россия,Пн: 00:00-24:00; Вт: 00:00-24:00; Ср: 00:00-24:00; Чт: 00:00-24:00; Пт: 00:00-24:00; Сб: 00:00-24:00; Вс: 00:00-24:00,+05:00,2.7,3,89174958119 (техническая поддержка: пн-вс 9:00-22:00),,,,,,https://wa.me/79174958119,,,54.762882,56.033032,https://2gis.com/firm/70000001036854960,branch
Vodorobot,,Питьевая вода,"Баязита Бикбая, 21/1 к1",1 этаж,450049,Сипайлово м-н,Октябрьский район,Уфа,Уфа городской округ,Республика Башкортостан,Россия,Пн: 00:00-24:00; Вт: 00:00-24:00; Ср: 00:00-24:00; Чт: 00:00-24:00; Пт: 00:00-24:00; Сб: 00:00-24:00; Вс: 00:00-24:00,+05:00,2.5,4,88001000123,,http://vodorobot.ru,,,https://vk.com/vodorobots,,,,54.76865,56.062188,https://2gis.com/firm/70000001040047892,branch
Третий кран,водомат,Питьевая вода,"Рудольфа Нуреева, 16",,450098,Планета м-н,Октябрьский район,Уфа,Уфа городской округ,Республика Башкортостан,Россия,Пн: 00:00-24:00; Вт: 00:00-24:00; Ср: 00:00-24:00; Чт: 00:00-24:00; Пт: 00:00-24:00; Сб: 00:00-24:00; Вс: 00:00-24:00,+05:00,2.3,3,88003338359 (единый номер: пн-пт 9:00-18:00),,http://3voda.ru,http://3kran.ru,,https://vk.com/3voda,,,https://youtube.com/channel/UCUsYs_b9OlePn7LJLmX39wA,54.764231,56.034011,https://2gis.com/firm/70000001074607079,branch
Vodorobot,,Питьевая вода,"Геологов, 53",,450062,Кузнецовский затон м-н,Кировский район,Уфа,Уфа городской округ,Республика Башкортостан,Россия,Пн: 00:00-24:00; Вт: 00:00-24:00; Ср: 00:00-24:00; Чт: 00:00-24:00; Пт: 00:00-24:00; Сб: 00:00-24:00; Вс: 00:00-24:00,+05:00,,,88001000123,,http://vodorobot.ru,,,https://vk.com/vodorobots,,,,54.684185,55.983221,https://2gis.com/firm/70000001067201283,branch
Vodorobot,,Питьевая вода,"Российская, 167/2",рядом с Монетка,450098,Глумилино м-н,Октябрьский район,Уфа,Уфа городской округ,Республика Башкортостан,Россия,Пн: 00:00-24:00; Вт: 00:00-24:00; Ср: 00:00-24:00; Чт: 00:00-24:00; Пт: 00:00-24:00; Сб: 00:00-24:00; Вс: 00:00-24:00,+05:00,4.3,15,88001000123,,http://vodorobot.ru,,,https://vk.com/vodorobots,,,,54.768257,56.03384,https://2gis.com/firm/70000001065305175,branch
Живая вoда,водомат,Питьевая вода,"проспект Октября, 81/1",1 этаж,450075,,Орджоникидзевский район,Уфа,Уфа городской округ,Республика Башкортостан,Россия,Пн: 00:00-24:00; Вт: 00:00-24:00; Ср: 00:00-24:00; Чт: 00:00-24:00; Пт: 00:00-24:00; Сб: 00:00-24:00; Вс: 00:00-24:00,+05:00,,,89870169455,89177383429,http://alivewater.ru,,,,,,,54.774316,56.024849,https://2gis.com/firm/70000001091868358,branch
Vodorobot,,Питьевая вода,"Блюхера, 2/3",супермаркет Пятёрочка,450075,,Орджоникидзевский район,Уфа,Уфа городской округ,Республика Башкортостан,Россия,Пн: 08:00-23:00; Вт: 08:00-23:00; Ср: 08:00-23:00; Чт: 08:00-23:00; Пт: 08:00-23:00; Сб: 08:00-23:00; Вс: 08:00-23:00,+05:00,2.4,3,88001000123,,http://vodorobot.ru,,,https://vk.com/vodorobots,,,,54.77605,56.021765,https://2gis.com/firm/70000001094589310,branch
Красноусольская премиум,,Питьевая вода,"проспект Октября, 122/3а",,450098,,Октябрьский район,Уфа,Уфа городской округ,Республика Башкортостан,Россия,Пн: 00:00-24:00; Вт: 00:00-24:00; Ср: 00:00-24:00; Чт: 00:00-24:00; Пт: 00:00-24:00; Сб: 00:00-24:00; Вс: 00:00-24:00,+05:00,1.8,4,89625407795,83472163307 (служба доставки: пн-пт 8:30-20:00),http://красноусольскаяпремиум.рф,,,https://vk.com/zhvoda_ufa,,,,54.771705,56.029429,https://2gis.com/firm/70000001052615062,branch
Красноусольская премиум,,Питьевая вода,"Блюхера, 2/1Б",,450075,,Орджоникидзевский район,Уфа,Уфа городской округ,Республика Башкортостан,Россия,Пн: 00:00-24:00; Вт: 00:00-24:00; Ср: 00:00-24:00; Чт: 00:00-24:00; Пт: 00:00-24:00; Сб: 00:00-24:00; Вс: 00:00-24:00,+05:00,1.5,5,"89177700180 (горячая линия: пн-пт 9:00-18:00; сб, вс 10:00-17:00)",83472163307 (служба доставки: пн-пт 8:30-20:00),http://красноусольскаяпремиум.рф,,,https://vk.com/zhvoda_ufa,,,,54.775362,56.02333,https://2gis.com/firm/70000001067516252,branch
Урал-аква,водомат,Питьевая вода,,,450075,,Орджоникидзевский район,Уфа,Уфа городской округ,Республика Башкортостан,Россия,Пн: 00:00-24:00; Вт: 00:00-24:00; Ср: 00:00-24:00; Чт: 00:00-24:00; Пт: 00:00-24:00; Сб: 00:00-24:00; Вс: 00:00-24:00,+05:00,2.5,3,89378577727 (единый номер: круглосуточно),,,,,,https://wa.me/79378577727,,,54.777336,56.023169,https://2gis.com/firm/70000001061201654,branch
Водомир,водомат,Питьевая вода,"Блюхера, 3/8",,450075,,Орджоникидзевский район,Уфа,Уфа городской округ,Республика Башкортостан,Россия,Пн: 00:00-24:00; Вт: 00:00-24:00; Ср: 00:00-24:00; Чт: 00:00-24:00; Пт: 00:00-24:00; Сб: 00:00-24:00; Вс: 00:00-24:00,+05:00,1.0,1,83472660157,,http://vodomir.su,,,https://vk.com/vodomirsu,,,,54.782483,56.013331,https://2gis.com/firm/70000001037059116,branch
Урал-аква,водомат,Питьевая вода,"набережная реки Уфы, 43 к2",,450105,Сипайлово м-н,Октябрьский район,Уфа,Уфа городской округ,Республика Башкортостан,Россия,Пн: 00:00-24:00; Вт: 00:00-24:00; Ср: 00:00-24:00; Чт: 00:00-24:00; Пт: 00:00-24:00; Сб: 00:00-24:00; Вс: 00:00-24:00,+05:00,1.0,5,89378577727,,,,,,,,,54.769695,56.082023,https://2gis.com/firm/70000001026888025,branch
Vodorobot,,Питьевая вода,"Блюхера, 3/10",,450075,,Орджоникидзевский район,Уфа,Уфа городской округ,Республика Башкортостан,Россия,Пн: 00:00-24:00; Вт: 00:00-24:00; Ср: 00:00-24:00; Чт: 00:00-24:00; Пт: 00:00-24:00; Сб: 00:00-24:00; Вс: 00:00-24:00,+05:00,,,88001000123,,http://vodorobot.ru,,,https://vk.com/vodorobots,,,,54.782396,56.015886,https://2gis.com/firm/70000001089516406,branch
Красноусольская премиум,,Питьевая вода,"проспект Октября, 89/1 а",,450075,,Орджоникидзевский район,Уфа,Уфа городской округ,Республика Башкортостан,Россия,Пн: 00:00-24:00; Вт: 00:00-24:00; Ср: 00:00-24:00; Чт: 00:00-24:00; Пт: 00:00-24:00; Сб: 00:00-24:00; Вс: 00:00-24:00,+05:00,1.7,6,"89177700180 (горячая линия: пн-пт 9:00-18:00; сб, вс 10:00-17:00)",83472163307 (служба доставки: пн-пт 8:30-20:00),http://красноусольскаяпремиум.рф,,,https://vk.com/zhvoda_ufa,,,,54.776663,56.028819,https://2gis.com/firm/70000001056845968,branch
Дар Сайрана,пункт продажи воды,Питьевая вода,"Уфимское шоссе, 27в",,450104,,Орджоникидзевский район,Уфа,Уфа городской округ,Республика Башкортостан,Россия,Пн: 00:00-24:00; Вт: 00:00-24:00; Ср: 00:00-24:00; Чт: 00:00-24:00; Пт: 00:00-24:00; Сб: 00:00-24:00; Вс: 00:00-24:00,+05:00,,,83472232171 (единый номер),89371547644,http://dar-sairana.ru,,,,https://wa.me/79371547644,,,54.785201,56.049161,https://2gis.com/firm/70000001063929789,branch
Урал-аква,водомат,Питьевая вода,,,450053,,Октябрьский район,Уфа,Уфа городской округ,Республика Башкортостан,Россия,Пн: 00:00-24:00; Вт: 00:00-24:00; Ср: 00:00-24:00; Чт: 00:00-24:00; Пт: 00:00-24:00; Сб: 00:00-24:00; Вс: 00:00-24:00,+05:00,4.5,2,89378577727,,,,,,,,,54.776033,56.030782,https://2gis.com/firm/70000001090544899,branch
Vodorobot,,Питьевая вода,"Шмидта, 160/1а",,450010,Затон м-н,Ленинский район,Уфа,Уфа городской округ,Республика Башкортостан,Россия,Пн: 00:00-24:00; Вт: 00:00-24:00; Ср: 00:00-24:00; Чт: 00:00-24:00; Пт: 00:00-24:00; Сб: 00:00-24:00; Вс: 00:00-24:00,+05:00,1.5,2,88001000123,,http://vodorobot.ru,,,https://vk.com/vodorobots,,,,54.78994,55.87026,https://2gis.com/firm/70000001067244053,branch
Vodorobot,,Питьевая вода,"Ахметова, 207/1",,450017,Затон м-н,Ленинский район,Уфа,Уфа городской округ,Республика Башкортостан,Россия,Пн: 00:00-24:00; Вт: 00:00-24:00; Ср: 00:00-24:00; Чт: 00:00-24:00; Пт: 00:00-24:00; Сб: 00:00-24:00; Вс: 00:00-24:00,+05:00,5.0,1,88001000123,,http://vodorobot.ru,,,https://vk.com/vodorobots,,,,54.778286,55.889797,https://2gis.com/firm/70000001084269864,branch
Матур су,водомат,Питьевая вода,,,450075,,Орджоникидзевский район,Уфа,Уфа городской округ,Республика Башкортостан,Россия,Пн: 00:00-24:00; Вт: 00:00-24:00; Ср: 00:00-24:00; Чт: 00:00-24:00; Пт: 00:00-24:00; Сб: 00:00-24:00; Вс: 00:00-24:00,+05:00,1.0,1,89378577727,,,,,,,,,54.777575,56.029336,https://2gis.com/firm/70000001092663687,branch
Живая вода,автомат по продаже воды,Питьевая вода,"Глумилинская, 4",,450098,Глумилино м-н,Октябрьский район,Уфа,Уфа городской округ,Республика Башкортостан,Россия,Пн: 00:00-24:00; Вт: 00:00-24:00; Ср: 00:00-24:00; Чт: 00:00-24:00; Пт: 00:00-24:00; Сб: 00:00-24:00; Вс: 00:00-24:00,+05:00,2.8,12,,,,,,,,,,54.772291,56.038655,https://2gis.com/firm/70000001040159157,branch
Живая вода,водомат,Питьевая вода,"Кустарёвская набережная, 19",,450095,Экогород Яркий м-н,Дёмский район,Уфа,Уфа городской округ,Республика Башкортостан,Россия,Пн: 00:00-24:00; Вт: 00:00-24:00; Ср: 00:00-24:00; Чт: 00:00-24:00; Пт: 00:00-24:00; Сб: 00:00-24:00; Вс: 00:00-24:00,+05:00,5.0,2,89191468189 (техническая поддержка),,,,,,,,,54.695447,55.853336,https://2gis.com/firm/70000001094299131,branch
Vodorobot,,Питьевая вода,"набережная реки Уфы, 3/7",,450073,Сипайлово м-н,Октябрьский район,Уфа,Уфа городской округ,Республика Башкортостан,Россия,Пн: 00:00-24:00; Вт: 00:00-24:00; Ср: 00:00-24:00; Чт: 00:00-24:00; Пт: 00:00-24:00; Сб: 00:00-24:00; Вс: 00:00-24:00,+05:00,,,88001000123,,http://vodorobot.ru,,,https://vk.com/vodorobots,,,,54.760542,56.051419,https://2gis.com/firm/70000001098233098,branch
Живая вoда,водомат,Питьевая вода,"Юрия Гагарина, 31",,450049,Сипайлово м-н,Октябрьский район,Уфа,Уфа городской округ,Республика Башкортостан,Россия,Пн: 00:00-24:00; Вт: 00:00-24:00; Ср: 00:00-24:00; Чт: 00:00-24:00; Пт: 00:00-24:00; Сб: 00:00-24:00; Вс: 00:00-24:00,+05:00,4.0,1,,,http://alivewater.ru,,,,,,,54.767637,56.070023,https://2gis.com/firm/70000001081894011,branch
Живая вода,,Питьевая вода,"Глумилинская, 8",1 этаж,450098,Глумилино м-н,Октябрьский район,Уфа,Уфа городской округ,Республика Башкортостан,Россия,Пн: 00:00-24:00; Вт: 00:00-24:00; Ср: 00:00-24:00; Чт: 00:00-24:00; Пт: 00:00-24:00; Сб: 00:00-24:00; Вс: 00:00-24:00,+05:00,2.3,5,,,,,,,,,,54.773761,56.038825,https://2gis.com/firm/70000001055144938,branch
Красная горкa,водомат,Питьевая вода,"Юрия Гагарина, 10 к5",,450073,Сипайлово м-н,Октябрьский район,Уфа,Уфа городской округ,Республика Башкортостан,Россия,Пн: 00:00-24:00; Вт: 00:00-24:00; Ср: 00:00-24:00; Чт: 00:00-24:00; Пт: 00:00-24:00; Сб: 00:00-24:00; Вс: 00:00-24:00,+05:00,2.1,2,89373416177 (единый номер: пн-вс 8:00-21:00),,http://ufa.zakazvoda.com,,,https://vk.com/vodakrasnayagorka,,,,54.763074,56.051331,https://2gis.com/firm/70000001057538618,branch
